$GPGGA,085945.00,4703.87549,N,01527.19992,E,1,06,1.27,406.5,M,43.8,M,,*5F
$GPGSA,A,3,19,11,14,01,22,20,,,,,,,2.59,1.27,2.26*00
$GPGSV,3,1,11,19,59,186,47,11,55,293,50,14,46,081,50,01,41,144,38*7B
$GPGSV,3,2,11,22,26,056,46,03,25,168,30,20,22,238,33,28,17,303,*72
$GPGSV,3,3,11,09,01,020,,28,17,303,,03,25,168,*44
$GPRMC,085946.00,A,4703.87653,N,01527.20101,E,0.006,,040506,,,A*7B
$GPVTG,,T,,M,0.006,N,0.012,K,A*26
$GPGGA,085946.50,4703.87653,N,01527.2010123,E,1,06,1.27,414.3,M,43.8,M,,*59
$GPGSA,A,3,19,11,14,01,22,20,,,,,,,2.59,1.27,2.26*00
$GPGSV,3,1,10,19,59,186,47,11,55,293,50,14,46,081,50,01,41,144,38*7A
$GPGSV,3,2,10,22,26,056,46,03,25,168,29,20,22,238,33,28,17,303,*7B
$GPGSV,3,3,10,09,01,020,,28,17,303,*7E
$GPRMC,085947.00,A,4703.87703,N,01527.20150,E,0.141,344.18,040506,,,A*6C
$GPVTG,344.18,T,,M,0.141,N,0.261,K,A*36
$GPGGA,085947.00,4703.877,N,01527.2015,E,1,06,1.27,418.0,M,43.8,M,,*57
$GPGSA,A,3,19,11,14,01,22,20,,,,,,,2.59,1.27,2.26*00
$GPGSV,3,1,09,19,59,186,46,11,55,293,50,14,46,081,50,01,41,144,38*73
$GPGSV,3,2,09,22,26,056,46,03,25,168,30,20,22,238,32,28,17,303,*7A
$GPGSV,3,3,09,09,01,020,*4A
$GPRMC,085948.00,A,4703.87716,N,01527.20181,E,0.017,,040506,,,A*7D
$GPVTG,,T,,M,0.017,N,0.032,K,A*24
$GPGGA,085948.00,4703.87716,N,01527.20181,E,1,06,1.27,419.9,M,43.8,M,,*58
$GPGSA,A,3,19,11,14,01,22,20,,,,,,,2.59,1.27,2.26*00
$GPGSV,3,1,09,19,59,186,46,11,55,293,50,14,46,081,50,01,41,144,37*7C
$GPGSV,3,2,09,22,26,056,45,03,25,168,30,20,22,238,32,28,17,303,*79
$GPGSV,3,3,09,09,01,020,*4A
$GPRMC,085949.00,A,4703.87722,N,01527.20204,E,0.006,,040506,,,A*75
$GPVTG,,T,,M,0.006,N,0.011,K,A*25
$GPGGA,085949,4703.87722,N,01527.20204,E,1,06,1.27,421.2,M,43.8,M,,*50
$GPGSA,A,3,19,11,14,01,22,20,,,,,,,2.59,1.27,2.26*00
$GPGSV,3,1,09,19,59,186,46,11,55,293,50,14,46,081,50,01,41,144,37*7C
$GPGSV,3,2,09,22,26,056,45,03,25,168,29,20,22,238,32,28,17,303,*71
$GPGSV,3,3,09,09,01,020,*4A
$GPRMC,085950.00,A,4703.87730,N,01527.20222,E,0.006,,040506,,,A*7A
$GPVTG,,T,,M,0.006,N,0.011,K,A*25
$GPGGA,085950.00,4703.87730,N,01527.20222,E,1,06,1.27,422.3,M,43.8,M,,*5D
$GPGSA,A,3,19,11,14,01,22,20,,,,,,,2.59,1.27,2.26*00
$GPGSV,3,1,09,19,59,186,46,11,55,293,49,14,46,081,50,01,41,144,37*74
$GPGSV,3,2,09,22,26,056,45,03,25,168,30,20,22,238,32,28,17,303,*79
$GPGSV,3,3,09,09,01,020,*4A
$GPRMC,085951.00,A,4703.87730,N,01527.20238,E,0.010,,040506,,,A*77
$GPVTG,,T,,M,0.010,N,0.018,K,A*2B
$GPGGA,085951.00,4703.87730,N,01527.20238,E,1,07,1.27,423.0,M,43.8,M,,*54
$GPGSA,A,3,19,11,14,01,22,03,20,,,,,,2.59,1.27,2.26*03
$GPGSV,3,1,09,19,59,186,46,11,55,293,49,14,46,081,50,01,41,144,37*74
$GPGSV,3,2,09,22,26,056,45,03,25,168,30,20,22,238,32,28,17,303,*79
$GPGSV,3,3,09,09,01,020,*4A
$GPRMC,085952.00,A,4703.87733,N,01527.20252,E,0.005,,040506,,,A*7F
$GPVTG,,T,,M,0.005,N,0.009,K,A*2F
$GPGGA,085952.00,4703.87733,N,01527.20252,E,1,07,1.27,423.6,M,43.8,M,,*5E
$GPGSA,A,3,19,11,14,01,22,03,20,,,,,,2.59,1.27,2.26*03
$GPGSV,3,1,09,19,59,186,46,11,55,293,49,14,46,081,50,01,41,144,38*7B
$GPGSV,3,2,09,22,26,056,45,03,25,168,31,20,22,238,32,28,17,303,*78
$GPGSV,3,3,09,09,01,020,*4A
$GPRMC,085953.00,A,4703.87734,N,01527.20265,E,0.010,,040506,,,A*79
$GPVTG,,T,,M,0.010,N,0.019,K,A*2A
$GPGGA,085953.00,4703.87734,N,01527.20265,E,1,07,1.27,424.1,M,43.8,M,,*5C
$GPGSA,A,3,19,11,14,01,22,03,20,,,,,,2.59,1.27,2.26*03
$GPGSV,3,1,09,19,59,186,46,11,55,293,49,14,46,081,50,01,41,144,38*7B
$GPGSV,3,2,09,22,26,056,45,03,25,168,31,20,22,238,32,28,17,303,*78
$GPGSV,3,3,09,09,01,020,*4A
$GPRMC,085954.00,A,4703.87737,N,01527.20286,E,0.005,,040506,,,A*74
$GPVTG,,T,,M,0.005,N,0.010,K,A*27
$GPGGA,085954.00,4703.87737,N,01527.20286,E,1,07,1.27,425.0,M,43.8,M,,*55
$GPGSA,A,3,19,11,14,01,22,03,20,,,,,,2.59,1.27,2.26*03
$GPGSV,3,1,09,19,59,186,46,11,55,293,49,14,46,081,50,01,41,144,38*7B
$GPGSV,3,2,09,22,26,056,45,03,25,168,32,20,22,238,33,28,17,303,*7A
$GPGSV,3,3,09,09,01,020,*4A
$GPRMC,085955.00,A,4703.87739,N,01527.20304,E,0.008,,040506,,,A*7D
$GPVTG,,T,,M,0.008,N,0.015,K,A*2F
$GPGGA,085955.00,4703.87739,N,01527.20304,E,1,07,1.27,425.6,M,43.8,M,,*57
$GPGSA,A,3,19,11,14,01,22,03,20,,,,,,2.59,1.27,2.26*03
$GPGSV,3,1,09,19,59,186,46,11,55,293,49,14,46,081,50,01,41,144,39*7A
$GPGSV,3,2,09,22,26,056,45,03,25,168,32,20,22,238,33,28,17,303,*7A
$GPGSV,3,3,09,09,01,020,*4A
$GPRMC,085956.00,A,4703.87735,N,01527.20312,E,0.010,,040506,,,A*7C
$GPVTG,,T,,M,0.010,N,0.018,K,A*2B
$GPGGA,085956.00,4703.87735,N,01527.20312,E,1,07,1.27,425.6,M,43.8,M,,*5F
$GPGSA,A,3,19,11,14,01,22,03,20,,,,,,2.59,1.27,2.26*03
$GPGSV,3,1,09,19,59,186,46,11,55,293,50,14,46,081,50,01,41,144,39*72
$GPGSV,3,2,09,22,26,056,45,03,25,168,33,20,22,238,32,28,17,303,*7A
$GPGSV,3,3,09,09,01,020,*4A
$GPRMC,085957.00,A,4703.87724,N,01527.20314,E,0.011,,040506,,,A*7A
$GPVTG,,T,,M,0.011,N,0.020,K,A*21
$GPGGA,085957.00,4703.87724,N,01527.20314,E,1,07,1.10,425.2,M,43.8,M,,*58
$GPGSA,A,3,19,11,14,01,22,03,20,,,,,,2.35,1.10,2.07*0E
$GPGSV,3,1,09,19,59,186,46,11,55,293,50,14,46,081,50,01,41,144,39*72
$GPGSV,3,2,09,22,26,056,45,03,25,168,33,20,22,238,32,28,17,303,*7A
$GPGSV,3,3,09,09,01,020,*4A
$GPRMC,085958.00,A,4703.87712,N,01527.20313,E,0.013,,040506,,,A*75
$GPVTG,,T,,M,0.013,N,0.023,K,A*20
$GPGGA,085958.00,4703.87712,N,01527.20313,E,1,07,1.10,424.5,M,43.8,M,,*53
$GPGSA,A,3,19,11,14,01,22,03,20,,,,,,2.35,1.10,2.08*01
$GPGSV,3,1,09,19,59,186,46,11,55,293,50,14,46,081,50,01,41,144,40*7C
$GPGSV,3,2,09,22,26,056,45,03,25,168,34,20,22,238,32,28,17,303,*7D
$GPGSV,3,3,09,09,01,020,*4A
$GPRMC,085959.00,A,4703.87706,N,01527.20322,E,0.016,,040506,,,A*76
$GPVTG,,T,,M,0.016,N,0.029,K,A*2F
$GPGGA,085959.00,4703.87706,N,01527.20322,E,1,07,1.10,424.5,M,43.8,M,,*55
$GPGSA,A,3,19,11,14,01,22,03,20,,,,,,2.35,1.10,2.08*01
$GPGSV,3,1,09,19,59,186,47,11,55,293,50,14,46,081,50,01,41,144,40*7D
$GPGSV,3,2,09,22,26,056,45,03,25,168,34,20,22,238,33,28,17,303,*7C
$GPGSV,3,3,09,09,01,020,*4A
$GPRMC,090000.00,A,4703.87696,N,01527.20323,E,0.005,,040506,,,A*7C
$GPVTG,,T,,M,0.005,N,0.009,K,A*2F
$GPGGA,090000.00,4703.87696,N,01527.20323,E,1,07,1.10,424.1,M,43.8,M,,*59
$GPGSA,A,3,19,11,14,01,22,03,20,,,,,,2.35,1.10,2.08*01
$GPGSV,3,1,09,19,59,186,47,11,55,293,50,14,46,081,50,01,41,144,40*7D
$GPGSV,3,2,09,22,26,056,45,03,25,168,34,20,22,238,32,28,17,303,*7D
$GPGSV,3,3,09,09,01,020,*4A
$GPRMC,090001.00,A,4703.87688,N,01527.20324,E,0.007,,040506,,,A*77
$GPVTG,,T,,M,0.007,N,0.013,K,A*26
$GPGGA,090001.00,4703.87688,N,01527.20324,E,1,07,1.10,423.7,M,43.8,M,,*51
$GPGSA,A,3,19,11,14,01,22,03,20,,,,,,2.35,1.10,2.07*0E
$GPGSV,3,1,09,19,59,186,47,11,55,293,50,14,46,081,50,01,41,144,40*7D
$GPGSV,3,2,09,22,26,056,44,03,25,168,34,20,22,238,32,28,17,303,*7C
$GPGSV,3,3,09,09,01,020,*4A
$GPRMC,090002.00,A,4703.87682,N,01527.20326,E,0.022,347.40,040506,,,A*61
$GPVTG,347.40,T,,M,0.022,N,0.041,K,A*3C
$GPGGA,090002.00,4703.87682,N,01527.20326,E,1,07,1.10,423.3,M,43.8,M,,*5E
$GPGSA,A,3,19,11,14,01,22,03,20,,,,,,2.35,1.10,2.08*01
$GPGSV,3,1,09,19,59,186,47,11,55,293,50,14,46,081,50,01,41,144,40*7D
$GPGSV,3,2,09,22,26,056,44,03,25,168,34,20,22,238,32,28,17,303,*7C
$GPGSV,3,3,09,09,01,020,*4A
$GPRMC,090003.00,A,4703.87675,N,01527.20327,E,0.007,,040506,,,A*74
$GPVTG,,T,,M,0.007,N,0.013,K,A*26
$GPGGA,090003.00,4703.87675,N,01527.20327,E,1,07,1.10,423.0,M,43.8,M,,*55
$GPGSA,A,3,19,11,14,01,22,03,20,,,,,,2.35,1.10,2.07*0E
$GPGSV,3,1,09,19,59,186,47,11,55,293,50,14,46,081,50,01,41,144,40*7D
$GPGSV,3,2,09,22,26,056,45,03,25,168,34,20,22,238,32,28,17,303,*7D
$GPGSV,3,3,09,09,01,020,*4A
$GPRMC,090004.00,A,4703.87671,N,01527.20328,E,0.007,,040506,,,A*78
$GPVTG,,T,,M,0.007,N,0.014,K,A*21
$GPGGA,090004.00,4703.87671,N,01527.20328,E,1,07,1.10,422.7,M,43.8,M,,*5F
$GPGSA,A,3,19,11,14,01,22,03,20,,,,,,2.35,1.10,2.07*0E
$GPGSV,3,1,09,19,59,186,47,11,55,293,50,14,46,081,50,01,41,144,39*73
$GPGSV,3,2,09,22,26,056,44,03,25,168,34,20,22,238,32,28,17,303,*7C
$GPGSV,3,3,09,09,01,020,*4A
$GPRMC,090005.00,A,4703.87661,N,01527.20332,E,0.065,348.52,040506,,,A*61
$GPVTG,348.52,T,,M,0.065,N,0.120,K,A*35
$GPGGA,090005.00,4703.87661,N,01527.20332,E,1,07,1.10,422.3,M,43.8,M,,*50
$GPGSA,A,3,19,11,14,01,22,03,20,,,,,,2.35,1.10,2.07*0E
$GPGSV,3,1,09,19,59,186,47,11,55,293,50,14,46,081,50,01,41,144,39*73
$GPGSV,3,2,09,22,26,056,44,03,25,168,34,20,22,238,32,28,17,303,*7C
$GPGSV,3,3,09,09,01,020,*4A
$GPRMC,090006.00,A,4703.87652,N,01527.20336,E,0.013,,040506,,,A*71
$GPVTG,,T,,M,0.013,N,0.025,K,A*26
$GPGGA,090006.00,4703.87652,N,01527.20336,E,1,07,1.10,421.9,M,43.8,M,,*5E
$GPGSA,A,3,19,11,14,01,22,03,20,,,,,,2.35,1.10,2.07*0E
$GPGSV,3,1,09,19,59,186,47,11,55,293,50,14,46,081,50,01,41,144,39*73
$GPGSV,3,2,09,22,26,056,44,03,25,168,34,20,22,238,32,28,17,303,*7C
$GPGSV,3,3,09,09,01,020,*4A
$GPRMC,090007.00,A,4703.87645,N,01527.20349,E,0.018,,040506,,,A*75
$GPVTG,,T,,M,0.018,N,0.033,K,A*2A
$GPGGA,090007.00,4703.87645,N,01527.20349,E,1,07,1.10,421.8,M,43.8,M,,*50
$GPGSA,A,3,19,11,14,01,22,03,20,,,,,,2.35,1.10,2.07*0E
$GPGSV,3,1,09,19,59,186,47,11,55,293,50,14,46,081,50,01,41,144,39*73
$GPGSV,3,2,09,22,26,056,44,03,25,168,33,20,22,238,33,28,17,303,*7A
$GPGSV,3,3,09,09,01,020,*4A
$GPRMC,090008.00,A,4703.87635,N,01527.20354,E,0.013,,040506,,,A*7A
$GPVTG,,T,,M,0.013,N,0.025,K,A*26
$GPGGA,090008.00,4703.87635,N,01527.20354,E,1,07,1.10,421.4,M,43.8,M,,*58
$GPGSA,A,3,19,11,14,01,22,03,20,,,,,,2.35,1.10,2.07*0E
$GPGSV,3,1,09,19,59,186,47,11,55,293,50,14,46,081,50,01,41,144,39*73
$GPGSV,3,2,09,22,26,056,44,03,25,168,33,20,22,238,32,28,17,303,*7B
$GPGSV,3,3,09,09,01,020,*4A
$GPRMC,090009.00,A,4703.87627,N,01527.20365,E,0.005,,040506,,,A*7D
$GPVTG,,T,,M,0.005,N,0.009,K,A*2F
$GPGGA,090009.00,4703.87627,N,01527.20365,E,1,07,1.10,421.2,M,43.8,M,,*5E
$GPGSA,A,3,19,11,14,01,22,03,20,,,,,,2.35,1.10,2.07*0E
$GPGSV,3,1,09,19,59,186,47,11,55,293,50,14,46,081,50,01,41,144,39*73
$GPGSV,3,2,09,22,26,056,44,03,25,168,33,20,22,238,33,28,17,303,*7A
$GPGSV,3,3,09,09,01,020,*4A
$GPRMC,090010.00,A,4703.87618,N,01527.20370,E,0.010,,040506,,,A*79
$GPVTG,,T,,M,0.010,N,0.019,K,A*2A
$GPGGA,090010.00,4703.87618,N,01527.20370,E,1,07,1.10,420.8,M,43.8,M,,*55
$GPGSA,A,3,19,11,14,01,22,03,20,,,,,,2.35,1.10,2.07*0E
$GPGSV,3,1,09,19,59,186,46,11,55,293,50,14,46,081,50,01,41,144,39*72
$GPGSV,3,2,09,22,26,056,44,03,25,168,33,20,22,238,32,28,17,303,*7B
$GPGSV,3,3,09,09,01,020,*4A
$GPRMC,090011.00,A,4703.87610,N,01527.20376,E,0.019,,040506,,,A*7F
$GPVTG,,T,,M,0.019,N,0.034,K,A*2C
$GPGGA,090011.00,4703.87610,N,01527.20376,E,1,07,1.10,420.5,M,43.8,M,,*57
$GPGSA,A,3,19,11,14,01,22,03,20,,,,,,2.34,1.10,2.07*0F
$GPGSV,3,1,09,19,59,186,46,11,55,293,50,14,46,081,50,01,41,144,39*72
$GPGSV,3,2,09,22,26,056,43,03,25,168,33,20,22,238,32,28,17,303,*7C
$GPGSV,3,3,09,09,01,020,*4A
$GPRMC,090012.00,A,4703.87601,N,01527.20379,E,0.006,,040506,,,A*7D
$GPVTG,,T,,M,0.006,N,0.010,K,A*24
$GPGGA,090012.00,4703.87601,N,01527.20379,E,1,07,1.10,420.0,M,43.8,M,,*5E
$GPGSA,A,3,19,11,14,01,22,03,20,,,,,,2.35,1.10,2.07*0E
$GPGSV,3,1,09,19,59,186,46,11,55,293,50,14,46,081,50,01,41,144,39*72
$GPGSV,3,2,09,22,26,056,43,03,25,168,33,20,22,238,31,28,17,303,*7F
$GPGSV,3,3,09,09,01,020,*4A
$GPRMC,090013.00,A,4703.87591,N,01527.20382,E,0.008,,040506,,,A*7C
$GPVTG,,T,,M,0.008,N,0.015,K,A*2F
$GPGGA,090013.00,4703.87591,N,01527.20382,E,1,07,1.10,419.5,M,43.8,M,,*5E
$GPGSA,A,3,19,11,14,01,22,03,20,,,,,,2.35,1.10,2.07*0E
$GPGSV,3,1,09,19,59,186,46,11,55,293,50,14,46,081,50,01,41,144,39*72
$GPGSV,3,2,09,22,26,056,43,03,25,168,33,20,22,238,31,28,17,303,*7F
$GPGSV,3,3,09,09,01,020,*4A
$GPRMC,090014.00,A,4703.87581,N,01527.20386,E,0.003,,040506,,,A*75
$GPVTG,,T,,M,0.003,N,0.006,K,A*26
$GPGGA,090014.00,4703.87581,N,01527.20386,E,1,07,1.10,419.0,M,43.8,M,,*59
$GPGSA,A,3,19,11,14,01,22,03,20,,,,,,2.35,1.10,2.07*0E
$GPGSV,3,1,09,19,59,186,46,11,55,293,50,14,46,081,50,01,41,144,39*72
$GPGSV,3,2,09,22,26,056,43,03,25,168,33,20,22,238,31,28,17,303,*7F
$GPGSV,3,3,09,09,01,020,*4A
$GPRMC,090015.00,A,4703.87570,N,01527.20391,E,0.005,,040506,,,A*7A
$GPVTG,,T,,M,0.005,N,0.009,K,A*2F
$GPGGA,090015.00,4703.87570,N,01527.20391,E,1,07,1.10,418.5,M,43.8,M,,*54
$GPGSA,A,3,19,11,14,01,22,03,20,,,,,,2.35,1.10,2.07*0E
$GPGSV,3,1,09,19,59,186,46,11,55,293,50,14,46,081,50,01,41,144,39*72
$GPGSV,3,2,09,22,26,056,43,03,25,168,33,20,22,238,31,28,17,303,*7F
$GPGSV,3,3,09,09,01,020,*4A
$GPRMC,090016.00,A,4703.87560,N,01527.20396,E,0.008,,040506,,,A*72
$GPVTG,,T,,M,0.008,N,0.014,K,A*2E
$GPGGA,090016.00,4703.87560,N,01527.20396,E,1,07,1.10,418.0,M,43.8,M,,*54
$GPGSA,A,3,19,11,14,01,22,03,20,,,,,,2.34,1.10,2.07*0F
$GPGSV,3,1,09,19,59,186,47,11,55,293,50,14,46,081,50,01,41,144,39*73
$GPGSV,3,2,09,22,26,056,43,03,25,168,33,20,22,238,31,28,17,303,*7F
$GPGSV,3,3,09,09,01,020,*4A
$GPRMC,090017.00,A,4703.87551,N,01527.20399,E,0.025,352.00,040506,,,A*6B
$GPVTG,352.00,T,,M,0.025,N,0.047,K,A*3D
$GPGGA,090017.00,4703.87551,N,01527.20399,E,1,07,1.10,417.4,M,43.8,M,,*53
$GPGSA,A,3,19,11,14,01,22,03,20,,,,,,2.34,1.10,2.07*0F
$GPGSV,3,1,09,19,59,186,47,11,55,293,50,14,46,081,50,01,41,144,40*7D
$GPGSV,3,2,09,22,26,056,43,03,25,168,34,20,22,238,31,28,17,303,*78
$GPGSV,3,3,09,09,01,020,*4A
$GPRMC,090018.00,A,4703.87541,N,01527.20400,E,0.012,,040506,,,A*7C
$GPVTG,,T,,M,0.012,N,0.022,K,A*20
$GPGGA,090018.00,4703.87541,N,01527.20400,E,1,07,1.10,416.9,M,43.8,M,,*56
$GPGSA,A,3,19,11,14,01,22,03,20,,,,,,2.35,1.10,2.07*0E
$GPGSV,3,1,09,19,59,186,47,11,55,293,50,14,46,081,50,01,41,144,40*7D
$GPGSV,3,2,09,22,26,056,43,03,25,168,34,20,22,238,30,28,17,303,*79
$GPGSV,3,3,09,09,01,020,*4A
$GPRMC,090019.00,A,4703.87533,N,01527.20401,E,0.010,,040506,,,A*7B
$GPVTG,,T,,M,0.010,N,0.018,K,A*2B
$GPGGA,090019.00,4703.87533,N,01527.20401,E,1,07,1.10,416.3,M,43.8,M,,*59
$GPGSA,A,3,19,11,14,01,22,03,20,,,,,,2.35,1.10,2.07*0E
$GPGSV,3,1,09,19,59,186,46,11,55,293,50,14,46,081,50,01,41,144,39*72
$GPGSV,3,2,09,22,26,056,43,03,25,168,32,20,22,238,30,28,17,303,*7F
$GPGSV,3,3,09,09,01,020,*4A
$GPRMC,090020.00,A,4703.87525,N,01527.20402,E,0.019,,040506,,,A*7C
$GPVTG,,T,,M,0.019,N,0.035,K,A*2D
$GPGGA,090020.00,4703.87525,N,01527.20402,E,1,07,1.10,415.8,M,43.8,M,,*5F
$GPGSA,A,3,19,11,14,01,22,03,20,,,,,,2.35,1.10,2.07*0E
$GPGSV,3,1,09,19,59,186,46,11,55,293,50,14,46,081,50,01,41,144,39*72
$GPGSV,3,2,09,22,26,056,43,03,25,168,32,20,22,238,30,28,17,303,*7F
$GPGSV,3,3,09,09,01,020,*4A
$GPRMC,090021.00,A,4703.87516,N,01527.20405,E,0.025,353.80,040506,,,A*66
$GPVTG,353.80,T,,M,0.025,N,0.046,K,A*35
$GPGGA,090021.00,4703.87516,N,01527.20405,E,1,07,1.10,415.3,M,43.8,M,,*52
$GPGSA,A,3,19,11,14,01,22,03,20,,,,,,2.35,1.10,2.07*0E
$GPGSV,3,1,09,19,59,186,46,11,55,293,50,14,46,081,50,01,41,144,40*7C
$GPGSV,3,2,09,22,26,056,43,03,25,168,32,20,22,238,30,28,17,303,*7F
$GPGSV,3,3,09,09,01,020,*4A
$GPRMC,090022.00,A,4703.87506,N,01527.20400,E,0.010,,040506,,,A*74
$GPVTG,,T,,M,0.010,N,0.018,K,A*2B
$GPGGA,090022.00,4703.87506,N,01527.20400,E,1,07,1.42,414.5,M,43.8,M,,*55
$GPGSA,A,3,19,11,14,01,22,03,20,,,,,,3.25,1.42,2.92*05
$GPGSV,3,1,09,19,59,186,46,11,55,293,50,14,46,081,50,01,41,143,40*7B
$GPGSV,3,2,09,22,26,056,43,03,25,168,32,20,22,238,30,28,17,303,*7F
$GPGSV,3,3,09,09,01,020,*4A
$GPRMC,090023.00,A,4703.87495,N,01527.20393,E,0.015,,040506,,,A*76
$GPVTG,,T,,M,0.015,N,0.028,K,A*2D
$GPGGA,090023.00,4703.87495,N,01527.20393,E,1,07,1.42,413.7,M,43.8,M,,*57
$GPGSA,A,3,19,11,14,01,22,03,20,,,,,,3.24,1.42,2.92*04
$GPGSV,3,1,09,19,59,186,46,11,55,293,50,14,46,081,50,01,41,143,40*7B
$GPGSV,3,2,09,22,26,056,43,03,25,168,32,20,22,238,29,28,17,303,*77
$GPGSV,3,3,09,09,01,020,*4A
$GPRMC,090024.00,A,4703.87485,N,01527.20386,E,0.032,355.46,040506,,,A*6E
$GPVTG,355.46,T,,M,0.032,N,0.059,K,A*31
$GPGGA,090024.00,4703.87485,N,01527.20386,E,1,07,1.42,413.1,M,43.8,M,,*53
$GPGSA,A,3,19,11,14,01,22,03,20,,,,,,3.25,1.42,2.92*05
$GPGSV,3,1,09,19,59,186,47,11,55,293,50,14,46,081,50,01,41,143,40*7A
$GPGSV,3,2,09,22,26,056,44,03,25,168,32,20,22,238,28,28,17,303,*71
$GPGSV,3,3,09,09,01,020,*4A
$GPRMC,090025.00,A,4703.87476,N,01527.20379,E,0.016,,040506,,,A*7A
$GPVTG,,T,,M,0.016,N,0.029,K,A*2F
$GPGGA,090025.00,4703.87476,N,01527.20379,E,1,07,1.42,412.4,M,43.8,M,,*5A
$GPGSA,A,3,19,11,14,01,22,03,20,,,,,,3.24,1.42,2.92*04
$GPGSV,3,1,09,19,59,186,47,11,55,293,50,14,46,081,50,01,41,143,41*7B
$GPGSV,3,2,09,22,26,056,44,03,25,168,31,20,22,238,28,28,17,303,*72
$GPGSV,3,3,09,09,01,020,*4A
$GPRMC,090026.00,A,4703.87468,N,01527.20372,E,0.029,357.41,040506,,,A*6B
$GPVTG,357.41,T,,M,0.029,N,0.054,K,A*33
$GPGGA,090026.00,4703.87468,N,01527.20372,E,1,07,1.42,411.7,M,43.8,M,,*5D
$GPGSA,A,3,19,11,14,01,22,03,20,,,,,,3.24,1.42,2.91*07
$GPGSV,3,1,09,19,59,186,47,11,55,293,50,14,46,081,50,01,41,143,40*7A
$GPGSV,3,2,09,22,26,056,43,03,25,168,31,20,22,238,28,28,17,303,*75
$GPGSV,3,3,09,09,01,020,*4A
$GPRMC,090027.00,A,4703.87461,N,01527.20366,E,0.006,,040506,,,A*71
$GPVTG,,T,,M,0.006,N,0.011,K,A*25
$GPGGA,090027.00,4703.87461,N,01527.20366,E,1,07,1.42,411.1,M,43.8,M,,*56
$GPGSA,A,3,19,11,14,01,22,03,20,,,,,,3.24,1.42,2.91*07
$GPGSV,3,1,09,19,59,186,46,11,55,293,50,14,46,081,50,01,41,143,40*7B
$GPGSV,3,2,09,22,26,056,43,03,25,168,31,20,22,238,27,28,17,303,*7A
$GPGSV,3,3,09,09,01,020,*4A
$GPRMC,090028.00,A,4703.87454,N,01527.20360,E,0.005,,040506,,,A*7D
$GPVTG,,T,,M,0.005,N,0.010,K,A*27
$GPGGA,090028.00,4703.87454,N,01527.20360,E,1,07,1.42,410.5,M,43.8,M,,*5C
$GPGSA,A,3,19,11,14,01,22,03,20,,,,,,3.24,1.42,2.91*07
$GPGSV,3,1,09,19,59,186,46,11,55,293,50,14,46,081,49,01,41,143,40*73
$GPGSV,3,2,09,22,26,056,43,03,25,168,32,20,22,238,27,28,17,303,*79
$GPGSV,3,3,09,09,01,020,*4A
$GPRMC,090029.00,A,4703.87448,N,01527.20353,E,0.009,,040506,,,A*7D
$GPVTG,,T,,M,0.009,N,0.017,K,A*2C
$GPGGA,090029.00,4703.87448,N,01527.20353,E,1,07,1.42,410.0,M,43.8,M,,*55
$GPGSA,A,3,19,11,14,01,22,03,20,,,,,,3.24,1.42,2.91*07
$GPGSV,3,1,09,19,59,186,47,11,55,293,50,14,46,081,50,01,41,143,40*7A
$GPGSV,3,2,09,22,26,056,43,03,25,168,31,20,22,238,27,28,17,303,*7A
$GPGSV,3,3,09,09,01,020,*4A
$GPRMC,090030.00,A,4703.87441,N,01527.20347,E,0.007,,040506,,,A*77
$GPVTG,,T,,M,0.007,N,0.012,K,A*27
$GPGGA,090030.00,4703.87441,N,01527.20347,E,1,07,1.42,409.4,M,43.8,M,,*5D
$GPGSA,A,3,19,11,14,01,22,03,20,,,,,,3.24,1.42,2.91*07
$GPGSV,3,1,09,19,59,186,47,11,55,293,50,14,46,081,49,01,41,143,41*73
$GPGSV,3,2,09,22,26,056,43,03,25,168,32,20,22,238,25,28,17,303,*7B
$GPGSV,3,3,09,09,01,020,*4A
$GPRMC,090031.00,A,4703.87436,N,01527.20341,E,0.006,,040506,,,A*71
$GPVTG,,T,,M,0.006,N,0.011,K,A*25
$GPGGA,090031.00,4703.87436,N,01527.20341,E,1,07,1.42,408.9,M,43.8,M,,*56
$GPGSA,A,3,19,11,14,01,22,03,20,,,,,,3.24,1.42,2.91*07
$GPGSV,3,1,09,19,59,186,47,11,55,293,50,14,46,081,49,01,41,143,41*73
$GPGSV,3,2,09,22,26,056,43,03,25,168,31,20,22,238,25,28,17,303,*78
$GPGSV,3,3,09,09,01,020,*4A
$GPRMC,090032.00,A,4703.87431,N,01527.20335,E,0.007,,040506,,,A*77
$GPVTG,,T,,M,0.007,N,0.013,K,A*26
$GPGGA,090032.00,4703.87431,N,01527.20335,E,1,07,1.42,408.4,M,43.8,M,,*5C
$GPGSA,A,3,19,11,14,01,22,03,20,,,,,,3.24,1.42,2.91*07
$GPGSV,3,1,09,19,59,186,47,11,55,293,50,14,46,081,49,01,41,143,40*72
$GPGSV,3,2,09,22,26,056,43,03,25,168,30,20,22,238,26,28,17,303,*7A
$GPGSV,3,3,09,09,01,020,*4A
$GPRMC,090033.00,A,4703.87427,N,01527.20331,E,0.008,,040506,,,A*7A
$GPVTG,,T,,M,0.008,N,0.014,K,A*2E
$GPGGA,090033.00,4703.87427,N,01527.20331,E,1,07,1.42,407.8,M,43.8,M,,*5D
$GPGSA,A,3,19,11,14,01,22,03,20,,,,,,3.24,1.42,2.91*07
$GPGSV,3,1,09,19,59,186,47,11,55,293,50,14,46,081,49,01,41,143,41*73
$GPGSV,3,2,09,22,26,056,43,03,25,168,31,20,22,238,27,28,17,303,*7A
$GPGSV,3,3,09,09,01,020,*4A
$GPRMC,090034.00,A,4703.87422,N,01527.20326,E,0.006,,040506,,,A*70
$GPVTG,,T,,M,0.006,N,0.011,K,A*25
$GPGGA,090034.00,4703.87422,N,01527.20326,E,1,07,1.42,407.3,M,43.8,M,,*52
$GPGSA,A,3,19,11,14,01,22,03,20,,,,,,3.24,1.42,2.91*07
$GPGSV,3,1,09,19,59,186,47,11,55,293,50,14,46,081,49,01,41,143,40*72
$GPGSV,3,2,09,22,26,056,43,03,25,168,30,20,22,238,27,28,17,303,*7B
$GPGSV,3,3,09,09,01,020,*4A
$GPRMC,090035.00,A,4703.87417,N,01527.20321,E,0.012,,040506,,,A*75
$GPVTG,,T,,M,0.012,N,0.022,K,A*20
$GPGGA,090035.00,4703.87417,N,01527.20321,E,1,07,1.42,406.7,M,43.8,M,,*57
$GPGSA,A,3,19,11,14,01,22,03,20,,,,,,3.24,1.42,2.91*07
$GPGSV,3,1,09,19,59,186,47,11,55,293,50,14,46,080,49,01,41,143,40*73
$GPGSV,3,2,09,22,26,056,44,03,25,168,30,20,22,238,28,28,17,303,*73
$GPGSV,3,3,09,09,01,020,*4A
$GPRMC,090036.00,A,4703.87412,N,01527.20317,E,0.029,358.87,040506,,,A*61
$GPVTG,358.87,T,,M,0.029,N,0.054,K,A*36
$GPGGA,090036.00,4703.87412,N,01527.20317,E,1,07,1.10,406.3,M,43.8,M,,*57
$GPGSA,A,3,19,11,14,01,22,03,20,,,,,,2.34,1.10,2.06*0E
$GPGSV,3,1,09,19,59,186,46,11,55,293,50,14,46,080,49,01,41,143,40*72
$GPGSV,3,2,09,22,26,056,44,03,25,168,29,20,22,238,27,28,17,303,*74
$GPGSV,3,3,09,09,01,020,*4A
$GPRMC,090037.00,A,4703.87406,N,01527.20313,E,0.026,0.70,040506,,,A*68
$GPVTG,0.70,T,,M,0.026,N,0.049,K,A*33
$GPGGA,090037.00,4703.87406,N,01527.20313,E,1,07,1.10,405.9,M,43.8,M,,*5E
$GPGSA,A,3,19,11,14,01,22,03,20,,,,,,2.34,1.10,2.07*0F
$GPGSV,3,1,09,19,59,186,46,11,55,293,50,14,46,080,48,01,41,143,40*73
$GPGSV,3,2,09,22,26,056,44,03,25,168,29,20,22,238,27,28,17,303,*74
$GPGSV,3,3,09,09,01,020,*4A
$GPRMC,090038.00,A,4703.87399,N,01527.20311,E,0.011,,040506,,,A*79
$GPVTG,,T,,M,0.011,N,0.021,K,A*20
$GPGGA,090038.00,4703.87399,N,01527.20311,E,1,07,1.10,405.4,M,43.8,M,,*5F
$GPGSA,A,3,19,11,14,01,22,03,20,,,,,,2.34,1.10,2.07*0F
$GPGSV,3,1,09,19,59,186,46,11,55,293,50,14,46,080,49,01,41,143,40*72
$GPGSV,3,2,09,22,26,056,44,03,25,168,29,20,22,238,27,28,17,303,*74
$GPGSV,3,3,09,09,01,020,*4A
$GPRMC,090039.00,A,4703.87393,N,01527.20309,E,0.005,,040506,,,A*7E
$GPVTG,,T,,M,0.005,N,0.010,K,A*27
$GPGGA,090039.00,4703.87393,N,01527.20309,E,1,07,1.10,405.0,M,43.8,M,,*59
$GPGSA,A,3,19,11,14,01,22,03,20,,,,,,2.35,1.10,2.07*0E
$GPGSV,3,1,09,19,59,186,46,11,55,293,50,14,46,080,48,01,41,143,40*73
$GPGSV,3,2,09,22,26,056,44,03,25,168,28,20,22,238,27,28,17,303,*75
$GPGSV,3,3,09,09,01,020,*4A
$GPRMC,090040.00,A,4703.87387,N,01527.20307,E,0.006,,040506,,,A*78
$GPVTG,,T,,M,0.006,N,0.011,K,A*25
$GPGGA,090040.00,4703.87387,N,01527.20307,E,1,07,1.10,404.6,M,43.8,M,,*5B
$GPGSA,A,3,19,11,14,01,22,03,20,,,,,,2.34,1.10,2.07*0F
$GPGSV,3,1,09,19,59,186,46,11,55,293,50,14,46,080,48,01,41,143,40*73
$GPGSV,3,2,09,22,26,056,44,03,25,168,28,20,22,238,27,28,17,303,*75
$GPGSV,3,3,09,09,01,020,*4A
$GPRMC,090041.00,A,4703.87381,N,01527.20304,E,0.009,,040506,,,A*73
$GPVTG,,T,,M,0.009,N,0.017,K,A*2C
$GPGGA,090041.00,4703.87381,N,01527.20304,E,1,07,1.10,404.2,M,43.8,M,,*5B
$GPGSA,A,3,19,11,14,01,22,03,20,,,,,,2.35,1.10,2.07*0E
$GPGSV,3,1,09,19,59,186,46,11,55,293,50,14,46,080,48,01,41,143,39*7D
$GPGSV,3,2,09,22,26,056,44,03,25,168,28,20,22,238,27,28,17,303,*75
$GPGSV,3,3,09,09,01,020,*4A
$GPRMC,090042.00,A,4703.87376,N,01527.20302,E,0.023,2.00,040506,,,A*6A
$GPVTG,2.00,T,,M,0.023,N,0.042,K,A*38
$GPGGA,090042.00,4703.87376,N,01527.20302,E,1,07,1.10,403.8,M,43.8,M,,*5B
$GPGSA,A,3,19,11,14,01,22,03,20,,,,,,2.34,1.10,2.07*0F
$GPGSV,3,1,09,19,59,186,46,11,55,293,50,14,46,080,48,01,41,143,39*7D
$GPGSV,3,2,09,22,26,056,45,03,25,168,27,20,22,238,27,28,17,303,*7B
$GPGSV,3,3,09,09,01,020,*4A
$GPRMC,090043.00,A,4703.87372,N,01527.20299,E,0.028,3.67,040506,,,A*67
$GPVTG,3.67,T,,M,0.028,N,0.052,K,A*32
$GPGGA,090043.00,4703.87372,N,01527.20299,E,1,07,1.10,403.5,M,43.8,M,,*50
$GPGSA,A,3,19,11,14,01,22,03,20,,,,,,2.35,1.10,2.07*0E
$GPGSV,3,1,09,19,59,186,46,11,55,293,50,14,46,080,48,01,41,143,39*7D
$GPGSV,3,2,09,22,25,056,44,03,25,168,26,20,22,238,26,28,17,303,*79
$GPGSV,3,3,09,09,01,020,*4A
$GPRMC,090044.00,A,4703.87367,N,01527.20297,E,0.009,,040506,,,A*75
$GPVTG,,T,,M,0.009,N,0.016,K,A*2D
$GPGGA,090044.00,4703.87367,N,01527.20297,E,1,07,1.10,403.2,M,43.8,M,,*5A
$GPGSA,A,3,19,11,14,01,22,03,20,,,,,,2.34,1.10,2.07*0F
$GPGSV,3,1,09,19,59,186,46,11,55,293,50,14,46,080,48,01,41,143,39*7D
$GPGSV,3,2,09,22,25,056,45,03,25,168,25,20,22,238,26,28,17,303,*7B
$GPGSV,3,3,09,09,01,020,*4A
$GPRMC,090045.00,A,4703.87361,N,01527.20294,E,0.014,,040506,,,A*7D
$GPVTG,,T,,M,0.014,N,0.025,K,A*21
$GPGGA,090045.00,4703.87361,N,01527.20294,E,1,07,1.10,402.9,M,43.8,M,,*54
$GPGSA,A,3,19,11,14,01,22,03,20,,,,,,2.34,1.10,2.06*0E
$GPGSV,3,1,09,19,59,186,46,11,55,293,50,14,46,080,48,01,41,143,39*7D
$GPGSV,3,2,09,22,25,056,45,03,25,168,26,20,22,238,26,28,17,303,*78
$GPGSV,3,3,09,09,01,020,*4A
$GPRMC,090046.00,A,4703.87355,N,01527.20292,E,0.002,,040506,,,A*78
$GPVTG,,T,,M,0.002,N,0.004,K,A*25
$GPGGA,090046.00,4703.87355,N,01527.20292,E,1,07,1.10,402.6,M,43.8,M,,*59
$GPGSA,A,3,19,11,14,01,22,03,20,,,,,,2.34,1.10,2.07*0F
$GPGSV,3,1,09,19,59,186,46,11,55,293,50,14,46,080,48,01,41,143,39*7D
$GPGSV,3,2,09,22,25,056,45,03,25,168,26,20,22,238,26,28,17,303,*78
$GPGSV,3,3,09,09,01,020,*4A
$GPRMC,090047.00,A,4703.87348,N,01527.20291,E,0.016,,040506,,,A*73
$GPVTG,,T,,M,0.016,N,0.030,K,A*27
$GPGGA,090047.00,4703.87348,N,01527.20291,E,1,07,1.10,402.3,M,43.8,M,,*52
$GPGSA,A,3,19,11,14,01,22,03,20,,,,,,2.34,1.10,2.07*0F
$GPGSV,3,1,09,19,59,186,46,11,55,293,50,14,46,080,48,01,41,143,39*7D
$GPGSV,3,2,09,22,25,056,45,03,25,168,25,20,22,238,26,28,17,303,*7B
$GPGSV,3,3,09,09,01,020,*4A
$GPRMC,090048.00,A,4703.87340,N,01527.20290,E,0.013,,040506,,,A*70
$GPVTG,,T,,M,0.013,N,0.025,K,A*26
$GPGGA,090048.00,4703.87340,N,01527.20290,E,1,07,1.10,402.0,M,43.8,M,,*57
$GPGSA,A,3,19,11,14,01,22,03,20,,,,,,2.34,1.10,2.06*0E
$GPGSV,3,1,09,19,59,186,46,11,55,293,50,14,46,080,48,01,41,143,39*7D
$GPGSV,3,2,09,22,25,056,45,03,25,168,25,20,22,238,26,28,17,303,*7B
$GPGSV,3,3,09,09,01,020,*4A
$GPRMC,090049.00,A,4703.87333,N,01527.20287,E,0.019,,040506,,,A*79
$GPVTG,,T,,M,0.019,N,0.036,K,A*2E
$GPGGA,090049.00,4703.87333,N,01527.20287,E,1,07,1.10,401.8,M,43.8,M,,*5F
$GPGSA,A,3,19,11,14,01,22,03,20,,,,,,2.34,1.10,2.07*0F
$GPGSV,3,1,09,19,59,186,46,11,55,293,50,14,46,080,48,01,41,143,38*7C
$GPGSV,3,2,09,22,25,056,45,03,25,168,26,20,22,238,26,28,17,303,*78
$GPGSV,3,3,09,09,01,020,*4A
$GPRMC,090050.00,A,4703.87326,N,01527.20284,E,0.015,,040506,,,A*7A
$GPVTG,,T,,M,0.015,N,0.028,K,A*2D
$GPGGA,090050.00,4703.87326,N,01527.20284,E,1,07,1.10,401.5,M,43.8,M,,*5D
$GPGSA,A,3,19,11,14,01,22,03,20,,,,,,2.34,1.10,2.07*0F
$GPGSV,3,1,09,19,59,186,46,11,55,293,50,14,46,080,48,01,41,143,38*7C
$GPGSV,3,2,09,22,25,056,46,03,25,168,26,20,22,238,25,28,17,303,*78
$GPGSV,3,3,09,09,01,020,*4A
$GPRMC,090051.00,A,4703.87318,N,01527.20281,E,0.012,,040506,,,A*74
$GPVTG,,T,,M,0.012,N,0.023,K,A*21
$GPGGA,090051.00,4703.87318,N,01527.20281,E,1,07,1.10,401.3,M,43.8,M,,*52
$GPGSA,A,3,19,11,14,01,22,03,20,,,,,,2.34,1.10,2.06*0E
$GPGSV,3,1,09,19,59,186,45,11,55,293,50,14,46,080,48,01,41,143,38*7F
$GPGSV,3,2,09,22,25,056,46,03,25,168,26,20,22,238,25,28,17,303,*78
$GPGSV,3,3,09,09,01,020,*4A
$GPRMC,090052.00,A,4703.87310,N,01527.20278,E,0.006,,040506,,,A*7C
$GPVTG,,T,,M,0.006,N,0.011,K,A*25
$GPGGA,090052.00,4703.87310,N,01527.20278,E,1,07,1.10,401.1,M,43.8,M,,*5D
$GPGSA,A,3,19,11,14,01,22,03,20,,,,,,2.34,1.10,2.07*0F
$GPGSV,3,1,09,19,59,186,45,11,55,293,50,14,46,080,48,01,41,143,37*70
$GPGSV,3,2,09,22,25,056,46,03,25,168,26,20,22,238,25,28,17,303,*78
$GPGSV,3,3,09,09,01,020,*4A
$GPRMC,090053.00,A,4703.87300,N,01527.20275,E,0.016,,040506,,,A*70
$GPVTG,,T,,M,0.016,N,0.030,K,A*27
$GPGGA,090053.00,4703.87300,N,01527.20275,E,1,07,1.10,400.9,M,43.8,M,,*59
$GPGSA,A,3,19,11,14,01,22,03,20,,,,,,2.34,1.10,2.07*0F
$GPGSV,3,1,09,19,59,186,45,11,55,293,50,14,46,080,48,01,41,143,37*70
$GPGSV,3,2,09,22,25,056,46,03,25,168,26,20,22,238,25,28,17,303,*78
$GPGSV,3,3,09,09,01,020,*4A
$GPRMC,090054.00,A,4703.87289,N,01527.20271,E,0.004,,040506,,,A*70
$GPVTG,,T,,M,0.004,N,0.007,K,A*20
$GPGGA,090054.00,4703.87289,N,01527.20271,E,1,07,1.42,400.7,M,43.8,M,,*53
$GPGSA,A,3,19,11,14,01,22,03,20,,,,,,3.23,1.42,2.89*09
$GPGSV,3,1,09,19,59,186,45,11,55,293,50,14,46,080,48,01,41,143,37*70
$GPGSV,3,2,09,22,25,056,46,03,25,168,27,20,22,238,24,28,17,303,*78
$GPGSV,3,3,09,09,01,020,*4A
$GPRMC,090055.00,A,4703.87278,N,01527.20267,E,0.010,,040506,,,A*7D
$GPVTG,,T,,M,0.010,N,0.019,K,A*2A
$GPGGA,090055.00,4703.87278,N,01527.20267,E,1,07,1.42,400.5,M,43.8,M,,*59
$GPGSA,A,3,19,11,14,01,22,03,20,,,,,,3.23,1.42,2.90*01
$GPGSV,3,1,09,19,59,186,44,11,55,293,50,14,46,080,48,01,41,143,37*71
$GPGSV,3,2,09,22,25,056,46,03,25,168,27,20,22,238,24,28,17,303,*78
$GPGSV,3,3,09,09,01,020,*4A
$GPRMC,090056.00,A,4703.87266,N,01527.20263,E,0.011,,040506,,,A*74
$GPVTG,,T,,M,0.011,N,0.021,K,A*20
$GPGGA,090056.00,4703.87266,N,01527.20263,E,1,07,1.42,400.3,M,43.8,M,,*57
$GPGSA,A,3,19,11,14,01,22,03,20,,,,,,3.23,1.42,2.89*09
$GPGSV,3,1,09,19,59,186,44,11,55,293,50,14,46,080,48,01,41,143,36*70
$GPGSV,3,2,09,22,25,056,46,03,25,168,27,20,22,238,21,28,17,303,*7D
$GPGSV,3,3,09,09,01,020,*4A
$GPRMC,090057.00,A,4703.87254,N,01527.20261,E,0.021,3.07,040506,,,A*6F
$GPVTG,3.07,T,,M,0.021,N,0.038,K,A*31
$GPGGA,090057.00,4703.87254,N,01527.20261,E,1,07,1.42,400.1,M,43.8,M,,*57
$GPGSA,A,3,19,11,14,01,22,03,20,,,,,,3.22,1.42,2.89*08
$GPGSV,3,1,09,19,59,186,44,11,55,293,50,14,46,080,48,01,41,143,36*70
$GPGSV,3,2,09,22,25,056,47,03,25,168,28,20,22,238,20,28,17,303,*72
$GPGSV,3,3,09,09,01,020,*4A
$GPRMC,090058.00,A,4703.87240,N,01527.20257,E,0.014,,040506,,,A*7C
$GPVTG,,T,,M,0.014,N,0.026,K,A*22
$GPGGA,090058.00,4703.87240,N,01527.20257,E,1,07,1.42,399.9,M,43.8,M,,*57
$GPGSA,A,3,19,11,14,01,22,03,20,,,,,,3.22,1.42,2.89*08
$GPGSV,3,1,09,19,59,186,44,11,55,293,50,14,46,080,48,01,41,143,36*70
$GPGSV,3,2,09,22,25,056,47,03,25,168,28,20,22,238,19,28,17,303,*78
$GPGSV,3,3,09,09,01,020,*4A
$GPRMC,090059.00,A,4703.87226,N,01527.20254,E,0.006,,040506,,,A*7D
$GPVTG,,T,,M,0.006,N,0.011,K,A*25
$GPGGA,090059.00,4703.87226,N,01527.20254,E,1,07,1.42,399.8,M,43.8,M,,*54
$GPGSA,A,3,19,11,14,01,22,03,20,,,,,,3.22,1.42,2.89*08
$GPGSV,3,1,09,19,59,186,44,11,55,293,50,14,46,080,48,01,41,143,36*70
$GPGSV,3,2,09,22,25,056,47,03,25,168,28,20,22,238,18,28,17,303,*79
$GPGSV,3,3,09,09,01,020,*4A
$GPRMC,090100.00,A,4703.87212,N,01527.20252,E,0.018,,040506,,,A*7E
$GPVTG,,T,,M,0.018,N,0.034,K,A*2D
$GPGGA,090100.00,4703.87212,N,01527.20252,E,1,07,1.43,399.6,M,43.8,M,,*57
$GPGSA,A,3,19,11,14,01,22,03,20,,,,,,3.23,1.43,2.89*08
$GPGSV,3,1,09,19,59,186,43,11,55,293,50,14,46,080,47,01,41,143,36*78
$GPGSV,3,2,09,22,25,056,47,03,25,168,28,20,22,238,16,28,17,303,*77
$GPGSV,3,3,09,09,01,020,*4A
$GPRMC,090101.00,A,4703.87198,N,01527.20251,E,0.009,,040506,,,A*7D
$GPVTG,,T,,M,0.009,N,0.017,K,A*2C
$GPGGA,090101.00,4703.87198,N,01527.20251,E,1,07,1.43,399.5,M,43.8,M,,*57
$GPGSA,A,3,19,11,14,01,22,03,20,,,,,,3.22,1.43,2.89*09
$GPGSV,3,1,09,19,59,186,43,11,55,293,50,14,46,080,48,01,41,143,35*74
$GPGSV,3,2,09,22,25,056,47,03,25,168,28,20,22,238,14,28,17,303,*75
$GPGSV,3,3,09,09,01,020,*4A
$GPRMC,090102.00,A,4703.87184,N,01527.20249,E,0.006,,040506,,,A*75
$GPVTG,,T,,M,0.006,N,0.011,K,A*25
$GPGGA,090102.00,4703.87184,N,01527.20249,E,1,07,1.43,399.4,M,43.8,M,,*51
$GPGSA,A,3,19,11,14,01,22,03,20,,,,,,3.22,1.43,2.89*09
$GPGSV,3,1,09,19,59,186,43,11,55,293,50,14,46,080,48,01,41,143,34*75
$GPGSV,3,2,09,22,25,056,47,03,25,168,27,20,22,238,14,28,17,303,*7A
$GPGSV,3,3,09,09,01,020,*4A
$GPRMC,090103.00,A,4703.87169,N,01527.20247,E,0.015,,040506,,,A*7B
$GPVTG,,T,,M,0.015,N,0.028,K,A*2D
$GPGGA,090103.00,4703.87169,N,01527.20247,E,1,07,1.10,399.4,M,43.8,M,,*5B
$GPGSA,A,3,19,11,14,01,22,03,20,,,,,,2.34,1.10,2.07*0F
$GPGSV,3,1,09,19,59,186,43,11,55,293,51,14,46,080,48,01,41,143,33*73
$GPGSV,3,2,09,22,25,056,47,03,25,168,27,20,22,238,11,28,17,303,*7F
$GPGSV,3,3,09,09,01,020,*4A
$GPRMC,090104.00,A,4703.87154,N,01527.20245,E,0.017,,040506,,,A*72
$GPVTG,,T,,M,0.017,N,0.032,K,A*24
$GPGGA,090104.00,4703.87154,N,01527.20245,E,1,07,1.43,399.3,M,43.8,M,,*51
$GPGSA,A,3,19,11,14,01,22,03,20,,,,,,3.22,1.43,2.89*09
$GPGSV,3,1,09,19,59,186,43,11,55,293,50,14,46,080,48,01,41,143,33*72
$GPGSV,3,2,09,22,25,056,47,03,25,168,27,20,22,238,10,28,17,303,*7E
$GPGSV,3,3,09,09,01,020,*4A
$GPRMC,090105.00,A,4703.87138,N,01527.20242,E,0.010,,040506,,,A*79
$GPVTG,,T,,M,0.010,N,0.019,K,A*2A
$GPGGA,090105.00,4703.87138,N,01527.20242,E,1,07,1.43,399.2,M,43.8,M,,*5C
$GPGSA,A,3,19,11,14,01,22,03,20,,,,,,3.22,1.43,2.89*09
$GPGSV,3,1,09,19,59,186,42,11,55,293,50,14,46,080,47,01,41,143,31*7E
$GPGSV,3,2,09,22,25,056,47,03,25,168,27,20,22,238,10,28,17,303,*7E
$GPGSV,3,3,09,09,01,020,*4A
$GPRMC,090106.00,A,4703.87121,N,01527.20240,E,0.013,,040506,,,A*73
$GPVTG,,T,,M,0.013,N,0.023,K,A*20
$GPGGA,090106.00,4703.87121,N,01527.20240,E,1,07,1.42,399.1,M,43.8,M,,*57
$GPGSA,A,3,19,11,14,01,22,03,20,,,,,,3.22,1.42,2.88*09
$GPGSV,3,1,09,19,59,186,42,11,55,293,50,14,46,080,47,01,41,143,31*7E
$GPGSV,3,2,09,22,25,056,47,03,25,168,29,20,22,238,10,28,17,303,*70
$GPGSV,3,3,09,09,01,020,*4A
$GPRMC,090107.00,A,4703.87103,N,01527.20239,E,0.011,,040506,,,A*7E
$GPVTG,,T,,M,0.011,N,0.020,K,A*21
$GPGGA,090107.00,4703.87103,N,01527.20239,E,1,06,1.43,399.0,M,43.8,M,,*59
$GPGSA,A,3,19,11,14,01,22,03,,,,,,,3.22,1.43,2.89*0B
$GPGSV,3,1,09,19,59,186,42,11,55,293,50,14,46,080,47,01,41,143,30*7F
$GPGSV,3,2,09,22,25,056,47,03,25,168,29,20,22,238,,28,17,303,*71
$GPGSV,3,3,09,09,01,020,*4A
$GPRMC,090108.00,A,4703.87084,N,01527.20238,E,0.020,8.10,040506,,,A*6B
$GPVTG,8.10,T,,M,0.020,N,0.037,K,A*32
$GPGGA,090108.00,4703.87084,N,01527.20238,E,1,06,1.43,399.0,M,43.8,M,,*59
$GPGSA,A,3,19,11,14,01,22,03,,,,,,,3.22,1.43,2.88*0A
$GPGSV,3,1,09,19,59,186,42,11,55,293,50,14,46,080,47,01,41,143,29*77
$GPGSV,3,2,09,22,25,056,48,03,25,168,29,20,22,238,,28,17,303,*7E
$GPGSV,3,3,09,09,01,020,*4A
$GPRMC,090109.00,A,4703.87066,N,01527.20238,E,0.031,2.79,040506,,,A*63
$GPVTG,2.79,T,,M,0.031,N,0.057,K,A*31
$GPGGA,090109.00,4703.87066,N,01527.20238,E,1,06,1.43,398.9,M,43.8,M,,*5C
$GPGSA,A,3,19,11,14,01,22,03,,,,,,,3.22,1.43,2.89*0B
$GPGSV,3,1,09,19,59,186,42,11,55,293,50,14,46,080,47,01,41,143,28*76
$GPGSV,3,2,09,22,25,056,47,03,25,168,29,20,22,238,,28,17,303,*71
$GPGSV,3,3,09,09,01,020,*4A
$GPRMC,090110.00,A,4703.87047,N,01527.20237,E,0.029,8.38,040506,,,A*61
$GPVTG,8.38,T,,M,0.029,N,0.053,K,A*33
$GPGGA,090110.00,4703.87047,N,01527.20237,E,1,06,1.43,398.8,M,43.8,M,,*59
$GPGSA,A,3,19,11,14,01,22,03,,,,,,,3.22,1.43,2.89*0B
$GPGSV,3,1,09,19,59,186,42,11,55,293,50,14,46,080,47,01,41,143,27*79
$GPGSV,3,2,09,22,25,056,47,03,25,168,29,20,22,238,,28,17,303,*71
$GPGSV,3,3,09,09,01,020,*4A
$GPRMC,090111.00,A,4703.87028,N,01527.20237,E,0.021,13.43,040506,,,A*57
$GPVTG,13.43,T,,M,0.021,N,0.039,K,A*01
$GPGGA,090111.00,4703.87028,N,01527.20237,E,1,06,1.43,398.7,M,43.8,M,,*5E
$GPGSA,A,3,19,11,14,01,22,03,,,,,,,3.22,1.43,2.88*0A
$GPGSV,3,1,09,19,59,186,42,11,55,293,50,14,46,080,47,01,41,143,26*78
$GPGSV,3,2,09,22,25,056,47,03,25,168,29,20,22,238,15,28,17,303,*75
$GPGSV,3,3,09,09,01,020,*4A
$GPRMC,090112.00,A,4703.87011,N,01527.20238,E,0.026,18.72,040506,,,A*5F
$GPVTG,18.72,T,,M,0.026,N,0.047,K,A*06
$GPGGA,090112.00,4703.87011,N,01527.20238,E,1,06,1.43,398.6,M,43.8,M,,*59
$GPGSA,A,3,19,11,14,01,22,03,,,,,,,3.22,1.43,2.88*0A
$GPGSV,3,1,09,19,59,186,42,11,55,293,50,14,46,080,47,01,41,143,26*78
$GPGSV,3,2,09,22,25,056,47,03,25,168,29,20,22,238,17,28,17,303,*77
$GPGSV,3,3,09,09,01,020,*4A
$GPRMC,090113.00,A,4703.86993,N,01527.20237,E,0.020,20.93,040506,,,A*51
$GPVTG,20.93,T,,M,0.020,N,0.037,K,A*03
$GPGGA,090113.00,4703.86993,N,01527.20237,E,1,06,1.43,398.5,M,43.8,M,,*56
$GPGSA,A,3,19,11,14,01,22,03,,,,,,,3.22,1.43,2.88*0A
$GPGSV,3,1,09,19,59,186,42,11,55,293,51,14,46,080,47,01,41,143,26*79
$GPGSV,3,2,09,22,25,056,48,03,25,168,29,20,22,238,16,28,17,303,*79
$GPGSV,3,3,09,09,01,020,*4A
$GPRMC,090114.00,A,4703.86977,N,01527.20237,E,0.022,25.98,040506,,,A*50
$GPVTG,25.98,T,,M,0.022,N,0.040,K,A*0F
$GPGGA,090114.00,4703.86977,N,01527.20237,E,1,06,1.43,398.4,M,43.8,M,,*5A
$GPGSA,A,3,19,11,14,01,22,03,,,,,,,3.21,1.43,2.88*09
$GPGSV,3,1,09,19,59,186,42,11,55,293,50,14,46,080,47,01,41,143,26*78
$GPGSV,3,2,09,22,25,056,48,03,25,168,29,20,22,238,16,28,17,303,*79
$GPGSV,3,3,09,09,01,020,*4A
$GPRMC,090115.00,A,4703.86960,N,01527.20238,E,0.024,31.21,040506,,,A*59
$GPVTG,31.21,T,,M,0.024,N,0.045,K,A*0B
$GPGGA,090115.00,4703.86960,N,01527.20238,E,1,06,1.43,398.3,M,43.8,M,,*55
$GPGSA,A,3,19,11,14,01,22,03,,,,,,,3.22,1.43,2.88*0A
$GPGSV,3,1,09,19,59,186,42,11,55,293,51,14,46,080,47,01,41,143,26*79
$GPGSV,3,2,09,22,25,056,48,03,24,168,30,20,22,238,17,28,17,303,*71
$GPGSV,3,3,09,09,01,020,*4A
$GPRMC,090116.00,A,4703.86944,N,01527.20238,E,0.021,34.75,040506,,,A*5D
$GPVTG,34.75,T,,M,0.021,N,0.039,K,A*01
$GPGGA,090116.00,4703.86944,N,01527.20238,E,1,07,1.43,398.2,M,43.8,M,,*50
$GPGSA,A,3,19,11,14,01,22,03,20,,,,,,3.21,1.43,2.88*0B
$GPGSV,3,1,09,19,59,186,43,11,55,293,51,14,46,080,47,01,41,143,29*77
$GPGSV,3,2,09,22,25,056,48,03,24,168,29,20,22,238,16,28,17,303,*78
$GPGSV,3,3,09,09,01,020,*4A
$GPRMC,090117.00,A,4703.86929,N,01527.20238,E,0.012,,040506,,,A*7C
$GPVTG,,T,,M,0.012,N,0.022,K,A*20
$GPGGA,090117.00,4703.86929,N,01527.20238,E,1,07,1.43,398.1,M,43.8,M,,*59
$GPGSA,A,3,19,11,14,01,22,03,20,,,,,,3.21,1.43,2.88*0B
$GPGSV,3,1,09,19,59,186,42,11,55,293,50,14,46,080,47,01,41,143,29*77
$GPGSV,3,2,09,22,25,056,48,03,24,168,29,20,22,238,15,28,17,303,*7B
$GPGSV,3,3,09,09,01,020,*4A
$GPRMC,090118.00,A,4703.86916,N,01527.20238,E,0.014,,040506,,,A*79
$GPVTG,,T,,M,0.014,N,0.026,K,A*22
$GPGGA,090118.00,4703.86916,N,01527.20238,E,1,07,1.43,398.0,M,43.8,M,,*5B
$GPGSA,A,3,19,11,14,01,22,03,20,,,,,,3.21,1.43,2.88*0B
$GPGSV,3,1,09,19,59,186,43,11,55,293,50,14,46,080,47,01,41,143,29*76
$GPGSV,3,2,09,22,25,056,48,03,24,168,29,20,22,238,17,28,17,303,*79
$GPGSV,3,3,09,09,01,020,*4A
$GPRMC,090119.00,A,4703.86904,N,01527.20238,E,0.032,40.05,040506,,,A*50
$GPVTG,40.05,T,,M,0.032,N,0.059,K,A*01
$GPGGA,090119.00,4703.86904,N,01527.20238,E,1,07,1.43,397.9,M,43.8,M,,*5F
$GPGSA,A,3,19,11,14,01,22,03,20,,,,,,3.21,1.43,2.88*0B
$GPGSV,3,1,09,19,59,186,43,11,55,293,50,14,46,080,47,01,41,143,30*7E
$GPGSV,3,2,09,22,25,056,48,03,24,168,29,20,22,238,16,28,17,303,*78
$GPGSV,3,3,09,09,01,020,*4A
$GPRMC,090120.00,A,4703.86892,N,01527.20239,E,0.016,,040506,,,A*7C
$GPVTG,,T,,M,0.016,N,0.030,K,A*27
$GPGGA,090120.00,4703.86892,N,01527.20239,E,1,07,1.43,397.8,M,43.8,M,,*5B
$GPGSA,A,3,19,11,14,01,22,03,20,,,,,,3.21,1.43,2.88*0B
$GPGSV,3,1,09,19,59,186,43,11,55,293,50,14,46,080,47,01,41,143,31*7F
$GPGSV,3,2,09,22,25,056,48,03,24,168,29,20,22,238,17,28,17,303,*79
$GPGSV,3,3,09,09,01,020,*4A
$GPRMC,090121.00,A,4703.86882,N,01527.20241,E,0.012,,040506,,,A*77
$GPVTG,,T,,M,0.012,N,0.022,K,A*20
$GPGGA,090121.00,4703.86882,N,01527.20241,E,1,07,1.43,397.7,M,43.8,M,,*5B
$GPGSA,A,3,19,11,14,01,22,03,20,,,,,,3.21,1.43,2.88*0B
$GPGSV,3,1,09,19,59,186,43,11,55,293,50,14,46,080,47,01,41,143,31*7F
$GPGSV,3,2,09,22,25,056,48,03,24,168,29,20,22,238,17,28,17,303,*79
$GPGSV,3,3,09,09,01,019,*40
$GPRMC,090122.00,A,4703.86873,N,01527.20243,E,0.015,,040506,,,A*7F
$GPVTG,,T,,M,0.015,N,0.027,K,A*22
$GPGGA,090122.00,4703.86873,N,01527.20243,E,1,07,1.43,397.5,M,43.8,M,,*56
$GPGSA,A,3,19,11,14,01,22,03,20,,,,,,3.21,1.43,2.88*0B
$GPGSV,3,1,09,19,59,186,44,11,55,293,50,14,46,080,47,01,41,143,31*78
$GPGSV,3,2,09,22,25,056,48,03,24,168,30,20,22,238,18,28,17,303,*7E
$GPGSV,3,3,09,09,01,019,*40
$GPRMC,090123.00,A,4703.86866,N,01527.20246,E,0.027,44.20,040506,,,A*52
$GPVTG,44.20,T,,M,0.027,N,0.051,K,A*0E
$GPGGA,090123.00,4703.86866,N,01527.20246,E,1,07,1.43,397.4,M,43.8,M,,*57
$GPGSA,A,3,19,11,14,01,22,03,20,,,,,,3.21,1.43,2.88*0B
$GPGSV,3,1,09,19,59,186,44,11,55,293,51,14,46,080,47,01,41,143,33*7B
$GPGSV,3,2,09,22,25,056,48,03,24,168,30,20,22,238,19,28,17,303,17*79
$GPGSV,3,3,09,09,01,019,*40
$GPRMC,090124.00,A,4703.86859,N,01527.20248,E,0.012,,040506,,,A*7D
$GPVTG,,T,,M,0.012,N,0.022,K,A*20
$GPGGA,090124.00,4703.86859,N,01527.20248,E,1,07,1.43,397.3,M,43.8,M,,*55
$GPGSA,A,3,19,11,14,01,22,03,20,,,,,,3.21,1.43,2.87*04
$GPGSV,3,1,09,19,59,186,44,11,55,293,51,14,46,080,47,01,41,143,34*7C
$GPGSV,3,2,09,22,25,056,48,03,24,168,30,20,22,238,19,28,17,303,16*78
$GPGSV,3,3,09,09,01,019,*40
$GPRMC,090125.00,A,4703.86856,N,01527.20248,E,0.018,,040506,,,A*79
$GPVTG,,T,,M,0.018,N,0.033,K,A*2A
$GPGGA,090125.00,4703.86856,N,01527.20248,E,1,07,1.43,397.2,M,43.8,M,,*5A
$GPGSA,A,3,19,11,14,01,22,03,20,,,,,,3.21,1.43,2.87*04
$GPGSV,3,1,09,19,59,186,44,11,55,293,51,14,46,080,47,01,41,143,36*7E
$GPGSV,3,2,09,22,25,056,48,03,24,168,30,20,22,238,20,28,17,303,16*72
$GPGSV,3,3,09,09,01,019,*40
$GPRMC,090126.00,A,4703.86855,N,01527.20249,E,0.010,,040506,,,A*70
$GPVTG,,T,,M,0.010,N,0.018,K,A*2B
$GPGGA,090126.00,4703.86855,N,01527.20249,E,1,07,1.43,397.1,M,43.8,M,,*58
$GPGSA,A,3,19,11,14,01,22,03,20,,,,,,3.21,1.43,2.88*0B
$GPGSV,3,1,09,19,59,186,44,11,55,293,50,14,46,080,47,01,41,143,35*7C
$GPGSV,3,2,09,22,25,056,47,03,24,168,30,20,22,238,22,28,17,303,16*7F
$GPGSV,3,3,09,09,01,019,*40
$GPRMC,090127.00,A,4703.86854,N,01527.20251,E,0.011,,040506,,,A*78
$GPVTG,,T,,M,0.011,N,0.021,K,A*20
$GPGGA,090127.00,4703.86854,N,01527.20251,E,1,07,1.43,396.9,M,43.8,M,,*58
$GPGSA,A,3,19,11,14,01,22,03,20,,,,,,3.21,1.43,2.87*04
$GPGSV,3,1,09,19,59,186,44,11,55,293,50,14,46,080,47,01,41,143,35*7C
$GPGSV,3,2,09,22,25,056,47,03,24,168,30,20,22,238,21,28,17,303,16*7C
$GPGSV,3,3,09,09,01,019,*40
$GPRMC,090128.00,A,4703.86858,N,01527.20251,E,0.008,,040506,,,A*73
$GPVTG,,T,,M,0.008,N,0.016,K,A*2C
$GPGGA,090128.00,4703.86858,N,01527.20251,E,1,08,1.43,396.8,M,43.8,M,,*55
$GPGSA,A,3,19,11,14,01,22,03,20,28,,,,,3.20,1.43,2.87*0F
$GPGSV,3,1,09,19,59,186,44,11,55,293,50,14,46,080,47,01,41,143,35*7C
$GPGSV,3,2,09,22,25,056,47,03,24,168,30,20,22,238,21,28,17,303,17*7D
$GPGSV,3,3,09,09,01,019,*40
$GPRMC,090129.00,A,4703.86868,N,01527.20249,E,0.004,,040506,,,A*74
$GPVTG,,T,,M,0.004,N,0.008,K,A*2F
$GPGGA,090129.00,4703.86868,N,01527.20249,E,1,08,1.43,396.8,M,43.8,M,,*5E
$GPGSA,A,3,19,11,14,01,22,03,20,28,,,,,3.21,1.43,2.87*0E
$GPGSV,3,1,09,19,59,186,44,11,55,293,50,14,46,080,46,01,41,143,36*7E
$GPGSV,3,2,09,22,25,056,47,03,24,168,30,20,22,238,21,28,17,303,17*7D
$GPGSV,3,3,09,09,01,019,*40
$GPRMC,090130.00,A,4703.86890,N,01527.20244,E,0.012,,040506,,,A*71
$GPVTG,,T,,M,0.012,N,0.023,K,A*21
$GPGGA,090130.00,4703.86890,N,01527.20244,E,1,08,1.43,396.9,M,43.8,M,,*5D
$GPGSA,A,3,19,11,14,01,22,03,20,28,,,,,3.21,1.43,2.87*0E
$GPGSV,3,1,09,19,59,186,44,11,55,293,50,14,46,080,46,01,41,143,37*7F
$GPGSV,3,2,09,22,25,056,47,03,24,168,30,20,22,238,22,28,17,303,20*7A
$GPGSV,3,3,09,09,01,019,*40
$GPRMC,090131.00,A,4703.86919,N,01527.20236,E,0.013,,040506,,,A*74
$GPVTG,,T,,M,0.013,N,0.025,K,A*26
$GPGGA,090131.00,4703.86919,N,01527.20236,E,1,08,1.43,397.1,M,43.8,M,,*50
$GPGSA,A,3,19,11,14,01,22,03,20,28,,,,,3.21,1.43,2.87*0E
$GPGSV,3,1,09,19,58,186,45,11,55,293,50,14,46,080,46,01,41,143,38*70
$GPGSV,3,2,09,22,25,056,47,03,24,168,30,20,22,238,23,28,17,303,20*7B
$GPGSV,3,3,09,09,01,019,*40
$GPRMC,090132.00,A,4703.86944,N,01527.20231,E,0.006,,040506,,,A*7C
$GPVTG,,T,,M,0.006,N,0.010,K,A*24
$GPGGA,090132.00,4703.86944,N,01527.20231,E,1,08,1.43,397.3,M,43.8,M,,*5E
$GPGSA,A,3,19,11,14,01,22,03,20,28,,,,,3.20,1.43,2.87*0F
$GPGSV,3,1,09,19,58,186,45,11,55,293,50,14,46,080,46,01,41,143,38*70
$GPGSV,3,2,09,22,25,056,47,03,24,168,30,20,23,238,24,28,17,303,21*7C
$GPGSV,3,3,09,09,01,019,*40
$GPRMC,090133.00,A,4703.86968,N,01527.20227,E,0.009,,040506,,,A*7B
$GPVTG,,T,,M,0.009,N,0.016,K,A*2D
$GPGGA,090133.00,4703.86968,N,01527.20227,E,1,08,1.43,397.5,M,43.8,M,,*50
$GPGSA,A,3,19,11,14,01,22,03,20,28,,,,,3.20,1.43,2.87*0F
$GPGSV,3,1,09,19,58,186,45,11,55,293,51,14,46,080,46,01,41,143,39*70
$GPGSV,3,2,09,22,25,056,47,03,24,168,30,20,23,238,24,28,17,303,22*7F
$GPGSV,3,3,09,09,01,019,*40
$GPRMC,090134.00,A,4703.86989,N,01527.20224,E,0.013,,040506,,,A*7B
$GPVTG,,T,,M,0.013,N,0.023,K,A*20
$GPGGA,090134.00,4703.86989,N,01527.20224,E,1,08,1.43,397.6,M,43.8,M,,*58
$GPGSA,A,3,19,11,14,01,22,03,20,28,,,,,3.21,1.43,2.87*0E
$GPGSV,3,1,09,19,58,186,45,11,55,293,51,14,46,080,46,01,41,143,39*70
$GPGSV,3,2,09,22,25,056,47,03,24,168,30,20,23,238,23,28,17,303,23*79
$GPGSV,3,3,09,09,01,019,*40
$GPRMC,090135.00,A,4703.87010,N,01527.20224,E,0.144,42.89,040506,,,A*58
$GPVTG,42.89,T,,M,0.144,N,0.267,K,A*08
$GPGGA,090135.00,4703.87010,N,01527.20224,E,1,08,1.43,397.9,M,43.8,M,,*5E
$GPGSA,A,3,19,11,14,01,22,03,20,28,,,,,3.20,1.43,2.87*0F
$GPGSV,3,1,09,19,58,186,45,11,55,293,51,14,46,080,46,01,41,143,39*70
$GPGSV,3,2,09,22,25,056,47,03,24,168,30,20,23,238,23,28,17,303,23*79
$GPGSV,3,3,09,09,01,019,*40
$GPRMC,090136.00,A,4703.87028,N,01527.20223,E,0.024,43.02,040506,,,A*52
$GPVTG,43.02,T,,M,0.024,N,0.044,K,A*0E
$GPGGA,090136.00,4703.87028,N,01527.20223,E,1,08,1.43,398.0,M,43.8,M,,*57
$GPGSA,A,3,19,11,14,01,22,03,20,28,,,,,3.20,1.43,2.86*0E
$GPGSV,3,1,09,19,58,186,45,11,55,293,51,14,46,080,46,01,41,143,39*70
$GPGSV,3,2,09,22,25,056,47,03,24,168,30,20,23,238,23,28,17,303,24*7E
$GPGSV,3,3,09,09,01,019,*40
$GPRMC,090137.00,A,4703.87044,N,01527.20224,E,0.006,,040506,,,A*75
$GPVTG,,T,,M,0.006,N,0.012,K,A*26
$GPGGA,090137.00,4703.87044,N,01527.20224,E,1,08,1.43,398.1,M,43.8,M,,*5A
$GPGSA,A,3,19,11,14,01,22,03,20,28,,,,,3.20,1.43,2.87*0F
$GPGSV,3,1,09,19,58,186,45,11,55,293,51,14,46,080,46,01,41,143,40*7E
$GPGSV,3,2,09,22,25,056,47,03,24,168,29,20,23,238,23,28,17,303,25*77
$GPGSV,3,3,09,09,01,019,*40
$GPRMC,090138.00,A,4703.87059,N,01527.20227,E,0.010,,040506,,,A*72
$GPVTG,,T,,M,0.010,N,0.019,K,A*2A
$GPGGA,090138.00,4703.87059,N,01527.20227,E,1,08,1.43,398.2,M,43.8,M,,*59
$GPGSA,A,3,19,11,14,01,22,03,20,28,,,,,3.20,1.43,2.87*0F
$GPGSV,3,1,09,19,58,186,45,11,55,293,51,14,46,080,46,01,41,143,39*70
$GPGSV,3,2,09,22,25,056,47,03,24,168,29,20,23,238,23,28,17,303,26*74
$GPGSV,3,3,09,09,01,019,*40
$GPRMC,090139.00,A,4703.87072,N,01527.20229,E,0.003,,040506,,,A*76
$GPVTG,,T,,M,0.003,N,0.005,K,A*25
$GPGGA,090139.00,4703.87072,N,01527.20229,E,1,08,1.43,398.2,M,43.8,M,,*5F
$GPGSA,A,3,19,11,14,01,22,03,20,28,,,,,3.20,1.43,2.86*0E
$GPGSV,3,1,09,19,58,186,45,11,55,293,51,14,46,080,46,01,41,143,40*7E
$GPGSV,3,2,09,22,25,056,47,03,24,168,30,20,23,238,24,28,17,303,26*7B
$GPGSV,3,3,09,09,01,019,*40
$GPRMC,090140.00,A,4703.87083,N,01527.20231,E,0.005,,040506,,,A*79
$GPVTG,,T,,M,0.005,N,0.010,K,A*27
$GPGGA,090140.00,4703.87083,N,01527.20231,E,1,08,1.43,398.3,M,43.8,M,,*57
$GPGSA,A,3,19,11,14,01,22,03,20,28,,,,,3.20,1.43,2.86*0E
$GPGSV,3,1,09,19,58,186,45,11,55,293,51,14,46,080,46,01,41,143,40*7E
$GPGSV,3,2,09,22,25,056,47,03,24,168,30,20,23,238,24,28,17,302,26*7A
$GPGSV,3,3,09,09,01,019,*40
$GPRMC,090141.00,A,4703.87093,N,01527.20235,E,0.026,38.25,040506,,,A*5E
$GPVTG,38.25,T,,M,0.026,N,0.048,K,A*09
$GPGGA,090141.00,4703.87093,N,01527.20235,E,1,08,1.43,398.4,M,43.8,M,,*54
$GPGSA,A,3,19,11,14,01,22,03,20,28,,,,,3.20,1.43,2.86*0E
$GPGSV,3,1,09,19,58,186,45,11,55,293,51,14,46,080,46,01,41,143,40*7E
$GPGSV,3,2,09,22,25,056,47,03,24,168,30,20,23,238,24,28,17,302,26*7A
$GPGSV,3,3,09,09,01,019,*40
$GPRMC,090142.00,A,4703.87102,N,01527.20239,E,0.011,,040506,,,A*7E
$GPVTG,,T,,M,0.011,N,0.021,K,A*20
$GPGGA,090142.00,4703.87102,N,01527.20239,E,1,08,1.43,398.5,M,43.8,M,,*53
$GPGSA,A,3,19,11,14,01,22,03,20,28,,,,,3.20,1.43,2.86*0E
$GPGSV,3,1,09,19,58,186,45,11,55,293,51,14,46,080,46,01,41,143,41*7F
$GPGSV,3,2,09,22,25,056,47,03,24,168,30,20,23,238,26,28,17,302,27*79
$GPGSV,3,3,09,09,01,019,*40
$GPRMC,090143.00,A,4703.87111,N,01527.20242,E,0.021,33.75,040506,,,A*5E
$GPVTG,33.75,T,,M,0.021,N,0.038,K,A*07
$GPGGA,090143.00,4703.87111,N,01527.20242,E,1,08,1.43,398.6,M,43.8,M,,*5F
$GPGSA,A,3,19,11,14,01,22,03,20,28,,,,,3.20,1.43,2.86*0E
$GPGSV,3,1,09,19,58,186,45,11,55,293,50,14,46,080,46,01,41,143,41*7E
$GPGSV,3,2,09,22,25,056,47,03,24,168,30,20,23,238,26,28,17,302,27*79
$GPGSV,3,3,09,09,01,019,*40
$GPRMC,090144.00,A,4703.87119,N,01527.20246,E,0.009,,040506,,,A*73
$GPVTG,,T,,M,0.009,N,0.017,K,A*2C
$GPGGA,090144.00,4703.87119,N,01527.20246,E,1,08,1.43,398.6,M,43.8,M,,*54
$GPGSA,A,3,19,11,14,01,22,03,20,28,,,,,3.20,1.43,2.86*0E
$GPGSV,3,1,09,19,58,186,45,11,55,293,50,14,46,080,46,01,41,143,41*7E
$GPGSV,3,2,09,22,25,056,47,03,24,168,30,20,23,238,26,28,17,302,27*79
$GPGSV,3,3,09,09,01,019,*40
$GPRMC,090145.00,A,4703.87126,N,01527.20249,E,0.021,34.28,040506,,,A*58
$GPVTG,34.28,T,,M,0.021,N,0.038,K,A*08
$GPGGA,090145.00,4703.87126,N,01527.20249,E,1,08,1.43,398.6,M,43.8,M,,*56
$GPGSA,A,3,19,11,14,01,22,03,20,28,,,,,3.20,1.43,2.86*0E
$GPGSV,3,1,09,19,58,186,45,11,55,293,50,14,46,080,46,01,41,143,41*7E
$GPGSV,3,2,09,22,25,056,47,03,24,168,30,20,23,238,26,28,17,302,27*79
$GPGSV,3,3,09,09,01,019,*40
$GPRMC,090146.00,A,4703.87133,N,01527.20252,E,0.012,,040506,,,A*76
$GPVTG,,T,,M,0.012,N,0.023,K,A*21
$GPGGA,090146.00,4703.87133,N,01527.20252,E,1,08,1.43,398.7,M,43.8,M,,*5A
$GPGSA,A,3,19,11,14,01,22,03,20,28,,,,,3.20,1.43,2.86*0E
$GPGSV,3,1,09,19,58,186,45,11,55,293,50,14,46,080,46,01,41,143,42*7D
$GPGSV,3,2,09,22,25,056,47,03,24,168,30,20,23,238,26,28,17,302,27*79
$GPGSV,3,3,09,09,01,019,*40
$GPRMC,090147.00,A,4703.87140,N,01527.20256,E,0.011,,040506,,,A*74
$GPVTG,,T,,M,0.011,N,0.021,K,A*20
$GPGGA,090147.00,4703.87140,N,01527.20256,E,1,08,1.43,398.8,M,43.8,M,,*54
$GPGSA,A,3,19,11,14,01,22,03,20,28,,,,,3.20,1.43,2.86*0E
$GPGSV,3,1,09,19,58,186,45,11,55,293,50,14,46,080,45,01,41,143,42*7E
$GPGSV,3,2,09,22,25,056,47,03,24,168,30,20,23,238,25,28,17,302,27*7A
$GPGSV,3,3,09,09,01,019,*40
$GPRMC,090148.00,A,4703.87146,N,01527.20261,E,0.017,,040506,,,A*7F
$GPVTG,,T,,M,0.017,N,0.031,K,A*27
$GPGGA,090148.00,4703.87146,N,01527.20261,E,1,08,1.43,398.8,M,43.8,M,,*59
$GPGSA,A,3,19,11,14,01,22,03,20,28,,,,,3.20,1.43,2.86*0E
$GPGSV,3,1,09,19,58,186,45,11,55,293,50,14,46,080,46,01,41,143,42*7D
$GPGSV,3,2,09,22,25,056,47,03,24,168,29,20,23,238,22,28,17,302,27*75
$GPGSV,3,3,09,09,01,019,*40
$GPRMC,090149.00,A,4703.87152,N,01527.20266,E,0.019,,040506,,,A*72
$GPVTG,,T,,M,0.019,N,0.035,K,A*2D
$GPGGA,090149.00,4703.87152,N,01527.20266,E,1,08,1.43,398.8,M,43.8,M,,*5A
$GPGSA,A,3,19,11,14,01,22,03,20,28,,,,,3.19,1.43,2.86*04
$GPGSV,3,1,09,19,58,186,45,11,55,293,50,14,46,080,45,01,41,143,42*7E
$GPGSV,3,2,09,22,25,056,47,03,24,168,29,20,23,238,23,28,17,302,27*74
$GPGSV,3,3,09,09,01,019,*40
$GPRMC,090150.00,A,4703.87159,N,01527.20271,E,0.025,29.64,040506,,,A*5F
$GPVTG,29.64,T,,M,0.025,N,0.047,K,A*00
$GPGGA,090150.00,4703.87159,N,01527.20271,E,1,08,1.43,398.9,M,43.8,M,,*5E
$GPGSA,A,3,19,11,14,01,22,03,20,28,,,,,3.19,1.43,2.86*04
$GPGSV,3,1,09,19,58,186,45,11,55,293,50,14,46,080,45,01,41,143,42*7E
$GPGSV,3,2,09,22,25,056,47,03,24,168,29,20,23,238,23,28,17,302,26*75
$GPGSV,3,3,09,09,01,019,*40
$GPRMC,090151.00,A,4703.87165,N,01527.20276,E,0.009,,040506,,,A*7F
$GPVTG,,T,,M,0.009,N,0.016,K,A*2D
$GPGGA,090151.00,4703.87165,N,01527.20276,E,1,08,1.43,399.0,M,43.8,M,,*5F
$GPGSA,A,3,19,11,14,01,22,03,20,28,,,,,3.19,1.43,2.85*07
$GPGSV,3,1,09,19,58,186,45,11,55,293,50,14,46,080,45,01,41,143,42*7E
$GPGSV,3,2,09,22,25,056,47,03,24,168,29,20,23,238,23,28,17,302,26*75
$GPGSV,3,3,09,09,01,019,*40
$GPRMC,090152.00,A,4703.87170,N,01527.20281,E,0.005,,040506,,,A*7C
$GPVTG,,T,,M,0.005,N,0.010,K,A*27
$GPGGA,090152.00,4703.87170,N,01527.20281,E,1,08,1.43,399.0,M,43.8,M,,*50
$GPGSA,A,3,19,11,14,01,22,03,20,28,,,,,3.19,1.43,2.86*04
$GPGSV,3,1,09,19,58,186,45,11,55,293,50,14,46,080,45,01,41,143,42*7E
$GPGSV,3,2,09,22,25,056,47,03,24,168,29,20,23,238,25,28,17,302,26*73
$GPGSV,3,3,09,09,01,019,*40
$GPRMC,090153.00,A,4703.87175,N,01527.20287,E,0.005,,040506,,,A*7E
$GPVTG,,T,,M,0.005,N,0.009,K,A*2F
$GPGGA,090153.00,4703.87175,N,01527.20287,E,1,08,1.43,399.1,M,43.8,M,,*53
$GPGSA,A,3,19,11,14,01,22,03,20,28,,,,,3.19,1.43,2.86*04
$GPGSV,3,1,09,19,58,186,45,11,55,293,50,14,46,080,45,01,41,143,42*7E
$GPGSV,3,2,09,22,25,056,47,03,24,168,29,20,23,238,24,28,17,302,23*77
$GPGSV,3,3,09,09,01,019,*40
$GPRMC,090154.00,A,4703.87180,N,01527.20293,E,0.009,,040506,,,A*7A
$GPVTG,,T,,M,0.009,N,0.017,K,A*2C
$GPGGA,090154.00,4703.87180,N,01527.20293,E,1,08,1.43,399.2,M,43.8,M,,*58
$GPGSA,A,3,19,11,14,01,22,03,20,28,,,,,3.19,1.43,2.85*07
$GPGSV,3,1,09,19,58,186,45,11,55,293,50,14,46,080,45,01,41,143,42*7E
$GPGSV,3,2,09,22,25,056,47,03,24,168,29,20,23,238,24,28,17,302,24*70
$GPGSV,3,3,09,09,01,019,*40
$GPRMC,090155.00,A,4703.87185,N,01527.20298,E,0.011,,040506,,,A*7C
$GPVTG,,T,,M,0.011,N,0.021,K,A*20
$GPGGA,090155.00,4703.87185,N,01527.20298,E,1,08,1.43,399.2,M,43.8,M,,*57
$GPGSA,A,3,19,11,14,01,22,03,20,28,,,,,3.19,1.43,2.85*07
$GPGSV,3,1,09,19,58,186,45,11,55,293,50,14,46,080,45,01,41,143,43*7F
$GPGSV,3,2,09,22,25,056,47,03,24,168,28,20,23,238,24,28,17,302,24*71
$GPGSV,3,3,09,09,01,019,*40
$GPRMC,090156.00,A,4703.87189,N,01527.20304,E,0.008,,040506,,,A*7F
$GPVTG,,T,,M,0.008,N,0.014,K,A*2E
$GPGGA,090156.00,4703.87189,N,01527.20304,E,1,08,1.43,399.3,M,43.8,M,,*5D
$GPGSA,A,3,19,11,14,01,22,03,20,28,,,,,3.19,1.43,2.85*07
$GPGSV,3,1,09,19,58,186,45,11,55,293,50,14,46,080,45,01,41,143,43*7F
$GPGSV,3,2,09,22,25,056,47,03,24,168,29,20,23,238,24,28,17,302,24*70
$GPGSV,3,3,09,09,01,019,*40
$GPRMC,090157.00,A,4703.87192,N,01527.20309,E,0.008,,040506,,,A*79
$GPVTG,,T,,M,0.008,N,0.015,K,A*2F
$GPGGA,090157.00,4703.87192,N,01527.20309,E,1,08,1.43,399.4,M,43.8,M,,*5C
$GPGSA,A,3,19,11,14,01,22,03,20,28,,,,,3.19,1.43,2.85*07
$GPGSV,3,1,09,19,58,186,45,11,55,293,50,14,46,080,45,01,41,143,42*7E
$GPGSV,3,2,09,22,25,056,47,03,24,168,29,20,23,238,22,28,17,302,19*78
$GPGSV,3,3,09,09,01,019,*40
$GPRMC,090158.00,A,4703.87194,N,01527.20313,E,0.004,,040506,,,A*77
$GPVTG,,T,,M,0.004,N,0.007,K,A*20
$GPGGA,090158.00,4703.87194,N,01527.20313,E,1,08,1.43,399.5,M,43.8,M,,*5F
$GPGSA,A,3,19,11,14,01,22,03,20,28,,,,,3.19,1.43,2.85*07
$GPGSV,3,1,09,19,58,186,44,11,55,293,50,14,46,080,45,01,41,143,43*7E
$GPGSV,3,2,09,22,25,056,47,03,24,168,29,20,23,238,22,28,17,302,19*78
$GPGSV,3,3,09,09,01,019,*40
$GPRMC,090159.00,A,4703.87196,N,01527.20317,E,0.006,,040506,,,A*72
$GPVTG,,T,,M,0.006,N,0.011,K,A*25
$GPGGA,090159.00,4703.87196,N,01527.20317,E,1,08,1.43,399.5,M,43.8,M,,*58
$GPGSA,A,3,19,11,14,01,22,03,20,28,,,,,3.19,1.43,2.85*07
$GPGSV,3,1,09,19,58,186,44,11,55,293,50,14,46,080,45,01,41,143,43*7E
$GPGSV,3,2,09,22,25,056,47,03,24,168,28,20,23,238,23,28,17,302,19*78
$GPGSV,3,3,09,09,01,019,*40
$GPRMC,090200.00,A,4703.87198,N,01527.20320,E,0.019,,040506,,,A*79
$GPVTG,,T,,M,0.019,N,0.036,K,A*2E
$GPGGA,090200.00,4703.87198,N,01527.20320,E,1,08,1.43,399.6,M,43.8,M,,*5E
$GPGSA,A,3,19,11,14,01,22,03,20,28,,,,,3.19,1.43,2.85*07
$GPGSV,3,1,09,19,58,186,44,11,55,293,50,14,46,080,46,01,41,143,43*7D
$GPGSV,3,2,09,22,25,056,47,03,24,168,28,20,23,238,23,28,17,302,17*76
$GPGSV,3,3,09,09,01,019,*40
$GPRMC,090201.00,A,4703.87199,N,01527.20322,E,0.005,,040506,,,A*76
$GPVTG,,T,,M,0.005,N,0.010,K,A*27
$GPGGA,090201.00,4703.87199,N,01527.20322,E,1,08,1.43,399.6,M,43.8,M,,*5C
$GPGSA,A,3,19,11,14,01,22,03,20,28,,,,,3.19,1.43,2.85*07
$GPGSV,3,1,09,19,58,186,44,11,55,293,50,14,46,080,46,01,41,143,44*7A
$GPGSV,3,2,09,22,25,056,47,03,24,168,28,20,23,238,25,28,17,302,14*73
$GPGSV,3,3,09,09,01,019,*40
$GPRMC,090202.00,A,4703.87200,N,01527.20322,E,0.016,,040506,,,A*74
$GPVTG,,T,,M,0.016,N,0.029,K,A*2F
$GPGGA,090202.00,4703.87200,N,01527.20322,E,1,08,1.43,399.7,M,43.8,M,,*5D
$GPGSA,A,3,19,11,14,01,22,03,20,28,,,,,3.19,1.43,2.85*07
$GPGSV,3,1,09,19,58,186,44,11,55,293,49,14,46,080,46,01,41,143,43*75
$GPGSV,3,2,09,22,25,056,47,03,24,168,28,20,23,238,27,28,17,302,10*75
$GPGSV,3,3,09,09,01,019,*40
$GPRMC,090203.00,A,4703.87201,N,01527.20323,E,0.009,,040506,,,A*7B
$GPVTG,,T,,M,0.009,N,0.016,K,A*2D
$GPGGA,090203.00,4703.87201,N,01527.20323,E,1,08,1.43,399.6,M,43.8,M,,*5D
$GPGSA,A,3,19,11,14,01,22,03,20,28,,,,,3.19,1.43,2.85*07
$GPGSV,3,1,09,19,58,186,44,11,55,293,50,14,46,080,46,01,41,143,43*7D
$GPGSV,3,2,09,22,25,056,47,03,24,168,28,20,23,238,27,28,17,302,10*75
$GPGSV,3,3,09,09,01,019,*40
$GPRMC,090204.00,A,4703.87202,N,01527.20323,E,0.012,,040506,,,A*75
$GPVTG,,T,,M,0.012,N,0.021,K,A*23
$GPGGA,090204.00,4703.87202,N,01527.20323,E,1,07,1.43,399.7,M,43.8,M,,*57
$GPGSA,A,3,19,11,14,01,22,03,20,,,,,,3.18,1.43,2.84*0D
$GPGSV,3,1,09,19,58,186,44,11,55,293,50,14,46,080,46,01,42,143,43*7E
$GPGSV,3,2,09,22,25,056,47,03,24,168,28,20,23,238,27,28,17,302,*74
$GPGSV,3,3,09,09,01,019,*40
$GPRMC,090205.00,A,4703.87203,N,01527.20321,E,0.013,,040506,,,A*76
$GPVTG,,T,,M,0.013,N,0.024,K,A*27
$GPGGA,090205.00,4703.87203,N,01527.20321,E,1,07,1.43,399.7,M,43.8,M,,*55
$GPGSA,A,3,19,11,14,01,22,03,20,,,,,,3.19,1.43,2.85*0D
$GPGSV,3,1,09,19,58,186,44,11,55,293,49,14,46,080,46,01,42,143,43*76
$GPGSV,3,2,09,22,25,056,48,03,24,168,28,20,23,238,27,28,17,302,*7B
$GPGSV,3,3,09,09,01,019,*40
$GPRMC,090206.00,A,4703.87203,N,01527.20320,E,0.015,,040506,,,A*72
$GPVTG,,T,,M,0.015,N,0.028,K,A*2D
$GPGGA,090206.00,4703.87203,N,01527.20320,E,1,07,1.43,399.7,M,43.8,M,,*57
$GPGSA,A,3,19,11,14,01,22,03,20,,,,,,3.18,1.43,2.85*0C
$GPGSV,3,1,09,19,58,186,43,11,55,293,49,14,46,080,46,01,42,143,44*76
$GPGSV,3,2,09,22,25,056,47,03,24,168,27,20,23,238,27,28,17,302,*7B
$GPGSV,3,3,09,09,01,019,*40
$GPRMC,090207.00,A,4703.87202,N,01527.20318,E,0.041,30.46,040506,,,A*57
$GPVTG,30.46,T,,M,0.041,N,0.076,K,A*08
$GPGGA,090207.00,4703.87202,N,01527.20318,E,1,07,1.43,399.6,M,43.8,M,,*5D
$GPGSA,A,3,19,11,14,01,22,03,20,,,,,,3.18,1.43,2.84*0D
$GPGSV,3,1,09,19,58,186,44,11,55,293,49,14,46,080,46,01,42,143,44*71
$GPGSV,3,2,09,22,25,056,47,03,24,168,27,20,23,238,27,28,17,302,*7B
$GPGSV,3,3,09,09,01,019,*40
$GPRMC,090208.00,A,4703.87202,N,01527.20316,E,0.013,,040506,,,A*7E
$GPVTG,,T,,M,0.013,N,0.024,K,A*27
$GPGGA,090208.00,4703.87202,N,01527.20316,E,1,07,1.43,399.6,M,43.8,M,,*5C
$GPGSA,A,3,19,11,14,01,22,03,20,,,,,,3.18,1.43,2.84*0D
$GPGSV,3,1,09,19,58,186,44,11,55,293,49,14,46,080,47,01,42,143,43*77
$GPGSV,3,2,09,22,25,056,47,03,24,168,27,20,23,238,27,28,17,302,*7B
$GPGSV,3,3,09,09,01,019,*40
$GPRMC,090209.00,A,4703.87201,N,01527.20313,E,0.009,,040506,,,A*72
$GPVTG,,T,,M,0.009,N,0.016,K,A*2D
$GPGGA,090209.00,4703.87201,N,01527.20313,E,1,07,1.43,399.6,M,43.8,M,,*5B
$GPGSA,A,3,19,11,14,01,22,03,20,,,,,,3.18,1.43,2.84*0D
$GPGSV,3,1,09,19,58,186,43,11,55,293,49,14,46,080,47,01,42,143,43*70
$GPGSV,3,2,09,22,25,056,47,03,24,168,27,20,23,238,27,28,17,302,*7B
$GPGSV,3,3,09,09,01,019,*40
$GPRMC,090210.00,A,4703.87199,N,01527.20308,E,0.010,,040506,,,A*7A
$GPVTG,,T,,M,0.010,N,0.018,K,A*2B
$GPGGA,090210.00,4703.87199,N,01527.20308,E,1,07,1.28,399.6,M,43.8,M,,*56
$GPGSA,A,3,19,11,14,01,22,03,20,,,,,,2.62,1.28,2.28*0A
$GPGSV,3,1,09,19,58,186,43,11,55,293,49,14,46,080,47,01,42,143,43*70
$GPGSV,3,2,09,22,25,056,47,03,24,168,25,20,23,238,28,28,17,302,*76
$GPGSV,3,3,09,09,01,019,*40
$GPRMC,090211.00,A,4703.87196,N,01527.20302,E,0.019,,040506,,,A*77
$GPVTG,,T,,M,0.019,N,0.036,K,A*2E
$GPGGA,090211.00,4703.87196,N,01527.20302,E,1,07,1.43,399.6,M,43.8,M,,*5F
$GPGSA,A,3,19,11,14,01,22,03,20,,,,,,3.18,1.43,2.84*0D
$GPGSV,3,1,09,19,58,186,43,11,55,293,48,14,46,080,47,01,42,143,43*71
$GPGSV,3,2,09,22,25,056,47,03,24,168,25,20,23,238,28,28,17,302,*76
$GPGSV,3,3,09,09,01,019,*40
$GPRMC,090212.00,A,4703.87194,N,01527.20296,E,0.001,,040506,,,A*73
$GPVTG,,T,,M,0.001,N,0.002,K,A*20
$GPGGA,090212.00,4703.87194,N,01527.20296,E,1,07,1.43,399.5,M,43.8,M,,*51
$GPGSA,A,3,19,11,14,01,22,03,20,,,,,,3.18,1.43,2.84*0D
$GPGSV,3,1,09,19,58,186,43,11,55,293,48,14,46,080,46,01,42,143,43*70
$GPGSV,3,2,09,22,25,056,47,03,24,168,25,20,23,238,28,28,17,302,*76
$GPGSV,3,3,09,09,01,019,*40
$GPRMC,090213.00,A,4703.87192,N,01527.20289,E,0.009,,040506,,,A*72
$GPVTG,,T,,M,0.009,N,0.016,K,A*2D
$GPGGA,090213.00,4703.87192,N,01527.20289,E,1,07,1.43,399.5,M,43.8,M,,*58
$GPGSA,A,3,19,11,14,01,22,03,20,,,,,,3.18,1.43,2.84*0D
$GPGSV,3,1,09,19,58,186,43,11,55,293,48,14,46,080,47,01,42,143,43*71
